code_insee,nom_commune,code_departement,code_region,annee,nb_mutations,nb_maisons,nb_appartements,prop_maison,prop_appartement,prix_moyen,prix_m2_moyen,surface_moyenne,population,latitude,longitude
01001,L'Abergement-Clémenciat,01,84.0,2024,4,4.0,0.0,0.0,100.0,290575,3258,96,860.0,46.1517,4.9306
01002,L'Abergement-de-Varey,01,84.0,2024,2,2.0,0.0,0.0,100.0,267500,1942,140,270.0,46.0071,5.4247
01004,Ambérieu-en-Bugey,01,84.0,2024,133,70.0,63.0,47.0,53.0,194332,2323,83,15934.0,45.9575,5.3706
01005,Ambérieux-en-Dombes,01,84.0,2024,47,16.0,31.0,66.0,34.0,228481,2711,85,1906.0,45.9992,4.9119
01007,Ambronay,01,84.0,2024,24,24.0,0.0,0.0,100.0,223065,2322,95,2841.0,46.0099,5.3627
01008,Ambutrix,01,84.0,2024,10,10.0,0.0,0.0,100.0,239000,2431,100,760.0,45.9347,5.3359
01009,Andert-et-Condon,01,84.0,2024,10,9.0,1.0,10.0,90.0,234210,2084,117,348.0,45.7841,5.6607
01010,Anglefort,01,84.0,2024,10,10.0,0.0,0.0,100.0,242510,2437,98,1174.0,45.9086,5.7948
01011,Apremont,01,84.0,2024,1,1.0,0.0,0.0,100.0,209000,1384,151,415.0,46.2045,5.6619
01012,Aranc,01,84.0,2024,2,2.0,0.0,0.0,100.0,71250,1029,76,331.0,45.9972,5.514
01013,Arandas,01,84.0,2024,3,3.0,0.0,0.0,100.0,118000,1912,71,138.0,45.8885,5.4982
01014,Arbent,01,84.0,2024,17,9.0,8.0,47.0,53.0,199952,2471,93,3555.0,46.2838,5.6879
01015,Arboys en Bugey,01,84.0,2024,5,5.0,0.0,0.0,100.0,203560,1706,116,710.0,45.7189,5.6404
01016,Arbigny,01,84.0,2024,3,3.0,0.0,0.0,100.0,203770,2141,96,462.0,46.4808,4.9613
01017,Argis,01,84.0,2024,13,12.0,1.0,8.0,92.0,104308,1154,95,419.0,45.9322,5.4819
01019,Armix,01,84.0,2024,1,1.0,0.0,0.0,100.0,150000,1705,88,25.0,45.8523,5.5837
01021,Ars-sur-Formans,01,84.0,2024,9,7.0,2.0,22.0,78.0,277627,2811,100,1528.0,45.9904,4.8195
01022,Artemare,01,84.0,2024,21,21.0,0.0,0.0,100.0,197651,2013,99,1139.0,45.8701,5.692
01023,Asnières-sur-Saône,01,84.0,2024,1,1.0,0.0,0.0,100.0,276300,2047,135,78.0,46.3859,4.882
01024,Attignat,01,84.0,2024,28,25.0,3.0,11.0,89.0,239011,2318,100,3409.0,46.2858,5.1823
01025,Bâgé-Dommartin,01,84.0,2024,31,30.0,1.0,3.0,97.0,190972,1874,104,4050.0,46.3277,4.9704
01026,Bâgé-le-Châtel,01,84.0,2024,10,10.0,0.0,0.0,100.0,203533,2157,92,971.0,46.3081,4.9305
01027,Balan,01,84.0,2024,17,11.0,6.0,35.0,65.0,280812,3195,87,3077.0,45.8268,5.1076
01028,Baneins,01,84.0,2024,7,7.0,0.0,0.0,100.0,269857,2520,106,621.0,46.1117,4.9045
01029,Beaupont,01,84.0,2024,11,11.0,0.0,0.0,100.0,170455,1570,108,734.0,46.4274,5.2634
01030,Beauregard,01,84.0,2024,10,8.0,2.0,20.0,80.0,230252,2537,91,872.0,46.0012,4.7567
01031,Bellignat,01,84.0,2024,31,12.0,19.0,61.0,39.0,135869,1667,75,3525.0,46.2402,5.6371
01032,Béligneux,01,84.0,2024,23,16.0,7.0,30.0,70.0,310777,2789,113,3535.0,45.8622,5.1415
01033,Valserhône,01,84.0,2024,206,74.0,132.0,64.0,36.0,214460,2576,83,16712.0,46.1234,5.7944
01034,Belley,01,84.0,2024,93,51.0,42.0,45.0,55.0,167930,2005,86,9388.0,45.743,5.6927
01036,Valromey-sur-Séran,01,84.0,2024,23,22.0,1.0,4.0,96.0,223335,2073,111,1351.0,45.9236,5.6626
01037,Bénonces,01,84.0,2024,3,3.0,0.0,0.0,100.0,110667,1545,101,311.0,45.842,5.4834
01038,Bény,01,84.0,2024,8,8.0,0.0,0.0,100.0,168275,1621,110,777.0,46.3189,5.2789
01040,Béréziat,01,84.0,2024,2,2.0,0.0,0.0,100.0,349950,2518,139,475.0,46.3699,5.0431
01041,Bettant,01,84.0,2024,10,10.0,0.0,0.0,100.0,153400,1665,92,774.0,45.9366,5.3648
01042,Bey,01,84.0,2024,3,3.0,0.0,0.0,100.0,333138,2643,129,286.0,46.2182,4.844
01043,Beynost,01,84.0,2024,52,40.0,12.0,23.0,77.0,390978,3428,118,5198.0,45.8359,4.9964
01044,Billiat,01,84.0,2024,7,6.0,1.0,14.0,86.0,298729,4062,96,713.0,46.0778,5.7632
01045,Birieux,01,84.0,2024,1,1.0,0.0,0.0,100.0,265000,3487,76,275.0,45.9509,5.0401
01046,Biziat,01,84.0,2024,4,4.0,0.0,0.0,100.0,294750,2534,121,889.0,46.224,4.9393
01047,Blyes,01,84.0,2024,10,10.0,0.0,0.0,100.0,341822,2953,115,1401.0,45.8442,5.2515
01049,La Boisse,01,84.0,2024,26,22.0,4.0,15.0,85.0,335851,2900,121,3449.0,45.8483,5.0262
01050,Boissey,01,84.0,2024,6,6.0,0.0,0.0,100.0,217505,1950,115,396.0,46.3723,4.9975
01051,Bolozon,01,84.0,2024,3,3.0,0.0,0.0,100.0,106000,1140,81,103.0,46.1971,5.4701
01052,Bouligneux,01,84.0,2024,1,1.0,0.0,0.0,100.0,326500,2744,119,318.0,46.0202,4.9957
01053,Bourg-en-Bresse,01,84.0,2024,521,106.0,415.0,80.0,20.0,151840,2083,73,42372.0,46.2027,5.2469
01054,Bourg-Saint-Christophe,01,84.0,2024,16,16.0,0.0,0.0,100.0,306256,2777,114,1562.0,45.8842,5.1393
01056,Boyeux-Saint-Jérôme,01,84.0,2024,5,5.0,0.0,0.0,100.0,93128,1364,73,367.0,46.0356,5.4616
01057,Boz,01,84.0,2024,6,6.0,0.0,0.0,100.0,133333,2048,73,513.0,46.4089,4.9166
01058,Brégnier-Cordon,01,84.0,2024,14,13.0,1.0,7.0,93.0,179081,1976,93,804.0,45.6406,5.6174
01060,Brénod,01,84.0,2024,10,10.0,0.0,0.0,100.0,144968,1196,140,576.0,46.0791,5.6116
01061,Brens,01,84.0,2024,6,5.0,1.0,17.0,83.0,242150,1970,138,1123.0,45.7163,5.69
01062,Bressolles,01,84.0,2024,9,9.0,0.0,0.0,100.0,341733,3084,116,1028.0,45.8714,5.0984
01063,Brion,01,84.0,2024,4,4.0,0.0,0.0,100.0,308125,2354,142,592.0,46.1689,5.5477
01064,Briord,01,84.0,2024,15,15.0,0.0,0.0,100.0,217911,2257,101,1119.0,45.768,5.4832
01065,Buellas,01,84.0,2024,13,11.0,2.0,15.0,85.0,264546,2311,117,1899.0,46.2116,5.1468
01066,La Burbanche,01,84.0,2024,1,1.0,0.0,0.0,100.0,96400,1555,62,98.0,45.8629,5.548
01067,Ceignes,01,84.0,2024,1,1.0,0.0,0.0,100.0,262000,1317,199,257.0,46.1258,5.4957
01068,Cerdon,01,84.0,2024,6,6.0,0.0,0.0,100.0,147633,1286,124,747.0,46.075,5.4755
01069,Certines,01,84.0,2024,10,6.0,4.0,40.0,60.0,187921,2650,71,1531.0,46.1336,5.2638
01071,Cessy,01,84.0,2024,48,27.0,21.0,44.0,56.0,537799,5160,106,5832.0,46.3157,6.082
01072,Ceyzériat,01,84.0,2024,24,22.0,2.0,8.0,92.0,291358,2721,104,3328.0,46.1822,5.3191
01073,Ceyzérieu,01,84.0,2024,16,16.0,0.0,0.0,100.0,189406,2129,95,1064.0,45.8368,5.7197
01074,Chalamont,01,84.0,2024,27,19.0,8.0,30.0,70.0,215540,2269,92,2533.0,46.0149,5.1735
01075,Chaleins,01,84.0,2024,10,9.0,1.0,10.0,90.0,312787,3212,114,1505.0,46.0361,4.7999
01076,Chaley,01,84.0,2024,2,2.0,0.0,0.0,100.0,130500,1395,92,129.0,45.9511,5.5408
01077,Challes-la-Montagne,01,84.0,2024,4,4.0,0.0,0.0,100.0,211625,1884,114,184.0,46.1237,5.456
01078,Challex,01,84.0,2024,13,9.0,4.0,31.0,69.0,412087,4001,104,1632.0,46.1765,5.9735
01079,Champagne-en-Valromey,01,84.0,2024,7,7.0,0.0,0.0,100.0,236857,1877,131,831.0,45.9317,5.6921
01080,Champdor-Corcelles,01,84.0,2024,5,5.0,0.0,0.0,100.0,132562,1594,87,665.0,46.0371,5.5882
01081,Champfromier,01,84.0,2024,5,5.0,0.0,0.0,100.0,194500,1792,118,725.0,46.2264,5.8216
01082,Chanay,01,84.0,2024,7,6.0,1.0,14.0,86.0,263714,3016,84,574.0,46.0024,5.7674
01083,Chaneins,01,84.0,2024,7,7.0,0.0,0.0,100.0,271657,2471,111,1046.0,46.0947,4.8517
01084,Chanoz-Châtenay,01,84.0,2024,10,10.0,0.0,0.0,100.0,267050,2386,113,989.0,46.1868,5.0302
01085,La Chapelle-du-Châtelard,01,84.0,2024,4,4.0,0.0,0.0,100.0,329715,2361,138,388.0,46.0683,5.0174
01087,Charix,01,84.0,2024,5,5.0,0.0,0.0,100.0,207000,2106,107,280.0,46.1893,5.6773
01088,Charnoz-sur-Ain,01,84.0,2024,6,5.0,1.0,17.0,83.0,297950,3206,95,951.0,45.8756,5.2251
01089,Château-Gaillard,01,84.0,2024,23,21.0,2.0,9.0,91.0,206618,2308,89,2443.0,45.9723,5.3091
01090,Châtenay,01,84.0,2024,4,4.0,0.0,0.0,100.0,292626,2469,122,373.0,46.0276,5.2085
01092,Châtillon-la-Palud,01,84.0,2024,23,22.0,1.0,4.0,96.0,264913,2753,95,1698.0,45.9757,5.246
01093,Châtillon-sur-Chalaronne,01,84.0,2024,49,24.0,25.0,51.0,49.0,243823,2713,94,5250.0,46.1264,4.9549
01094,Chavannes-sur-Reyssouze,01,84.0,2024,9,9.0,0.0,0.0,100.0,175668,1644,109,726.0,46.4403,5.0069
01095,Nivigne et Suran,01,84.0,2024,5,5.0,0.0,0.0,100.0,151200,1653,95,820.0,46.2824,5.4323
01096,Chaveyriat,01,84.0,2024,5,5.0,0.0,0.0,100.0,239352,2350,102,1078.0,46.1991,5.0534
01098,Chazey-Bons,01,84.0,2024,13,11.0,2.0,15.0,85.0,183258,2015,91,1142.0,45.8007,5.6678
01099,Chazey-sur-Ain,01,84.0,2024,12,12.0,0.0,0.0,100.0,270417,2444,116,1632.0,45.8937,5.2604
01101,Chevillard,01,84.0,2024,1,1.0,0.0,0.0,100.0,120000,667,180,149.0,46.1087,5.5815
01102,Chevroux,01,84.0,2024,3,3.0,0.0,0.0,100.0,225005,2253,102,990.0,46.3822,4.9598
01103,Chevry,01,84.0,2024,30,15.0,15.0,50.0,50.0,521926,4900,110,2372.0,46.2841,6.0474
01104,Chézery-Forens,01,84.0,2024,7,5.0,2.0,29.0,71.0,171429,2255,76,433.0,46.2244,5.8693
01105,Civrieux,01,84.0,2024,12,10.0,2.0,17.0,83.0,337641,3400,105,2016.0,45.9208,4.8895
01106,Cize,01,84.0,2024,3,3.0,0.0,0.0,100.0,121000,1804,67,168.0,46.2015,5.45
01107,Cleyzieu,01,84.0,2024,1,1.0,0.0,0.0,100.0,147000,1312,112,143.0,45.9027,5.4317
01108,Coligny,01,84.0,2024,16,14.0,2.0,12.0,88.0,135095,1568,96,1360.0,46.3889,5.3352
01109,Collonges,01,84.0,2024,33,24.0,9.0,27.0,73.0,410026,4143,99,2398.0,46.1397,5.9007
01110,Colomieu,01,84.0,2024,3,3.0,0.0,0.0,100.0,192667,1276,154,159.0,45.7338,5.6269
01111,Conand,01,84.0,2024,1,1.0,0.0,0.0,100.0,220000,1692,130,134.0,45.8836,5.4787
01112,Condamine,01,84.0,2024,3,3.0,0.0,0.0,100.0,185000,2184,85,480.0,46.1056,5.5596
01113,Condeissiat,01,84.0,2024,7,7.0,0.0,0.0,100.0,275429,2824,100,839.0,46.1541,5.0863
01114,Confort,01,84.0,2024,4,3.0,1.0,25.0,75.0,345313,3612,98,668.0,46.1536,5.8358
01115,Confrançon,01,84.0,2024,10,9.0,1.0,10.0,90.0,224929,1997,112,1356.0,46.2732,5.06
01116,Contrevoz,01,84.0,2024,7,7.0,0.0,0.0,100.0,178143,1451,126,494.0,45.7971,5.6164
01117,Conzieu,01,84.0,2024,1,1.0,0.0,0.0,100.0,129000,1142,113,155.0,45.7246,5.602
01118,Corbonod,01,84.0,2024,17,16.0,1.0,6.0,94.0,322615,3249,104,1333.0,45.9668,5.7902
01123,Cormoranche-sur-Saône,01,84.0,2024,8,8.0,0.0,0.0,100.0,302110,2154,136,1179.0,46.2459,4.8305
01124,Cormoz,01,84.0,2024,7,7.0,0.0,0.0,100.0,203556,1943,101,703.0,46.4375,5.2209
01125,Corveissiat,01,84.0,2024,8,8.0,0.0,0.0,100.0,203220,1719,118,601.0,46.2514,5.4771
01127,Courmangoux,01,84.0,2024,3,3.0,0.0,0.0,100.0,173333,1506,119,522.0,46.3243,5.3585
01128,Courtes,01,84.0,2024,4,4.0,0.0,0.0,100.0,175375,1577,111,289.0,46.4564,5.1128
01129,Crans,01,84.0,2024,2,2.0,0.0,0.0,100.0,221500,1758,121,326.0,45.9667,5.1917
01130,Bresse Vallons,01,84.0,2024,21,21.0,0.0,0.0,100.0,216357,2134,113,2388.0,46.3271,5.1822
01133,Cressin-Rochefort,01,84.0,2024,2,1.0,1.0,50.0,50.0,192500,1290,152,380.0,45.7833,5.765
01134,Crottet,01,84.0,2024,14,12.0,2.0,14.0,86.0,215328,2111,103,1847.0,46.2848,4.876
01135,Crozet,01,84.0,2024,23,15.0,8.0,35.0,65.0,518865,4825,107,2416.0,46.2906,5.9929
01136,Cruzilles-lès-Mépillat,01,84.0,2024,9,9.0,0.0,0.0,100.0,281478,2019,152,984.0,46.2233,4.876
01138,Culoz-Béon,01,84.0,2024,33,23.0,10.0,30.0,70.0,167801,1954,86,3453.0,45.8553,5.7716
01139,Curciat-Dongalon,01,84.0,2024,9,9.0,0.0,0.0,100.0,169389,1366,127,472.0,46.4883,5.1666
01140,Curtafond,01,84.0,2024,4,4.0,0.0,0.0,100.0,357500,3231,100,825.0,46.2742,5.1051
01141,Cuzieu,01,84.0,2024,8,8.0,0.0,0.0,100.0,286996,2347,126,424.0,45.8216,5.6802
01142,Dagneux,01,84.0,2024,36,24.0,12.0,33.0,67.0,269574,2780,101,4778.0,45.854,5.0748
01143,Divonne-les-Bains,01,84.0,2024,167,39.0,128.0,77.0,23.0,615064,5989,100,10464.0,46.3754,6.1114
01145,Dompierre-sur-Veyle,01,84.0,2024,8,8.0,0.0,0.0,100.0,293438,2615,113,1245.0,46.0672,5.2167
01146,Dompierre-sur-Chalaronne,01,84.0,2024,6,6.0,0.0,0.0,100.0,188883,1721,118,456.0,46.142,4.9004
01147,Domsure,01,84.0,2024,3,3.0,0.0,0.0,100.0,199400,1738,120,554.0,46.4211,5.2945
01148,Dortan,01,84.0,2024,15,14.0,1.0,7.0,93.0,200039,2182,95,2074.0,46.3184,5.6443
01149,Douvres,01,84.0,2024,8,7.0,1.0,12.0,88.0,281268,2646,101,1104.0,45.9847,5.3724
01150,Drom,01,84.0,2024,3,3.0,0.0,0.0,100.0,186103,1639,112,215.0,46.2202,5.3674
01151,Druillat,01,84.0,2024,10,10.0,0.0,0.0,100.0,253400,1997,132,1129.0,46.0691,5.2947
01152,Échallon,01,84.0,2024,4,4.0,0.0,0.0,100.0,341250,2737,120,784.0,46.2293,5.7346
01153,Échenevex,01,84.0,2024,22,19.0,3.0,14.0,86.0,657260,5073,129,2328.0,46.3197,6.018
01156,Faramans,01,84.0,2024,4,4.0,0.0,0.0,100.0,389186,3634,109,934.0,45.9086,5.126
01157,Fareins,01,84.0,2024,40,38.0,2.0,5.0,95.0,337529,2936,116,2533.0,46.0235,4.7682
01158,Farges,01,84.0,2024,11,8.0,3.0,27.0,73.0,344327,3862,92,1082.0,46.1657,5.9054
01159,Feillens,01,84.0,2024,26,23.0,3.0,12.0,88.0,184098,2106,94,3411.0,46.3393,4.8866
01160,Ferney-Voltaire,01,84.0,2024,166,17.0,149.0,90.0,10.0,357007,4829,75,12094.0,46.252,6.1061
01162,Flaxieu,01,84.0,2024,1,1.0,0.0,0.0,100.0,150000,1852,81,71.0,45.8125,5.7466
01163,Foissiat,01,84.0,2024,21,19.0,2.0,10.0,90.0,189595,1932,98,2034.0,46.3792,5.1851
01165,Francheleins,01,84.0,2024,16,16.0,0.0,0.0,100.0,316073,3151,109,1597.0,46.0707,4.8111
01166,Frans,01,84.0,2024,25,20.0,5.0,20.0,80.0,323908,3188,107,2582.0,45.9905,4.7819
01167,Garnerans,01,84.0,2024,4,4.0,0.0,0.0,100.0,348698,2537,171,711.0,46.2124,4.8289
01169,Genouilleux,01,84.0,2024,2,2.0,0.0,0.0,100.0,336300,3148,108,701.0,46.1211,4.7926
01170,Béard-Géovreissiat,01,84.0,2024,7,7.0,0.0,0.0,100.0,205286,1956,113,1048.0,46.1884,5.5497
01171,Géovreisset,01,84.0,2024,1,1.0,0.0,0.0,100.0,235000,2423,97,852.0,46.2518,5.6163
01173,Gex,01,84.0,2024,187,45.0,142.0,76.0,24.0,342607,4533,75,13627.0,46.3515,6.0488
01174,Giron,01,84.0,2024,4,3.0,1.0,25.0,75.0,292475,4885,112,174.0,46.2209,5.7891
01175,Gorrevod,01,84.0,2024,8,8.0,0.0,0.0,100.0,264594,2292,114,815.0,46.4157,4.9507
01177,Grand-Corent,01,84.0,2024,2,1.0,1.0,50.0,50.0,67642,1370,48,183.0,46.2089,5.4388
01179,Grièges,01,84.0,2024,14,14.0,0.0,0.0,100.0,220330,2237,102,1910.0,46.2669,4.8475
01180,Grilly,01,84.0,2024,11,7.0,4.0,36.0,64.0,715577,6141,117,889.0,46.3318,6.1139
01181,Groissiat,01,84.0,2024,8,8.0,0.0,0.0,100.0,263999,2209,122,1205.0,46.227,5.6179
01183,Guéreins,01,84.0,2024,8,8.0,0.0,0.0,100.0,224353,2409,92,1512.0,46.106,4.7839
01184,Hautecourt-Romanèche,01,84.0,2024,12,12.0,0.0,0.0,100.0,170583,2535,97,748.0,46.1592,5.4311
01185,Plateau d'Hauteville,01,84.0,2024,39,33.0,6.0,15.0,85.0,151811,1749,93,4857.0,45.9305,5.5775
01187,Haut Valromey,01,84.0,2024,9,7.0,2.0,22.0,78.0,151308,1968,84,801.0,46.0436,5.6846
01188,Illiat,01,84.0,2024,3,3.0,0.0,0.0,100.0,179667,1896,96,702.0,46.1838,4.8884
01189,Injoux-Génissiat,01,84.0,2024,7,6.0,1.0,14.0,86.0,260571,2005,142,1115.0,46.0505,5.7678
01190,Innimond,01,84.0,2024,3,3.0,0.0,0.0,100.0,243643,1368,198,95.0,45.7875,5.5723
01191,Izenave,01,84.0,2024,3,3.0,0.0,0.0,100.0,144667,1460,134,162.0,46.038,5.5234
01192,Izernore,01,84.0,2024,9,9.0,0.0,0.0,100.0,204889,2267,91,2299.0,46.216,5.5609
01193,Izieu,01,84.0,2024,3,3.0,0.0,0.0,100.0,262333,2773,95,225.0,45.6555,5.6387
01194,Jassans-Riottier,01,84.0,2024,56,31.0,25.0,45.0,55.0,252764,2944,86,6247.0,45.9771,4.7626
01195,Jasseron,01,84.0,2024,25,23.0,2.0,8.0,92.0,236655,2282,104,1917.0,46.2176,5.317
01196,Jayat,01,84.0,2024,14,13.0,1.0,7.0,93.0,186743,1996,94,1261.0,46.3698,5.1117
01197,Journans,01,84.0,2024,4,4.0,0.0,0.0,100.0,214250,2298,94,387.0,46.1455,5.3333
01199,Jujurieux,01,84.0,2024,20,19.0,1.0,5.0,95.0,159400,1664,95,2260.0,46.0503,5.4122
01200,Labalme,01,84.0,2024,2,2.0,0.0,0.0,100.0,191000,1567,128,204.0,46.0915,5.4945
01202,Lagnieu,01,84.0,2024,85,44.0,41.0,48.0,52.0,197966,2262,90,7411.0,45.8863,5.3396
01203,Laiz,01,84.0,2024,6,6.0,0.0,0.0,100.0,222423,2214,107,1293.0,46.2462,4.9006
01204,Le Poizat-Lalleyriat,01,84.0,2024,6,6.0,0.0,0.0,100.0,201497,1910,111,732.0,46.1392,5.6955
01206,Lantenay,01,84.0,2024,2,1.0,1.0,50.0,50.0,170500,1688,84,260.0,46.0531,5.5379
01207,Lapeyrouse,01,84.0,2024,2,2.0,0.0,0.0,100.0,155000,2595,60,348.0,45.9849,4.9821
01209,Léaz,01,84.0,2024,8,7.0,1.0,12.0,88.0,313899,3086,117,912.0,46.1114,5.8768
01210,Lélex,01,84.0,2024,19,2.0,17.0,89.0,11.0,138588,2424,47,241.0,46.2856,5.9274
01211,Lent,01,84.0,2024,8,7.0,1.0,12.0,88.0,223425,2241,97,1512.0,46.1165,5.1974
01212,Lescheroux,01,84.0,2024,11,10.0,1.0,9.0,91.0,141936,1398,106,726.0,46.4089,5.1573
01213,Leyment,01,84.0,2024,12,11.0,1.0,8.0,92.0,226097,2647,85,1441.0,45.9287,5.2927
01214,Leyssard,01,84.0,2024,1,1.0,0.0,0.0,100.0,855420,2940,291,164.0,46.1605,5.4767
01215,Surjoux-Lhopital,01,84.0,2024,1,1.0,0.0,0.0,100.0,443000,2786,159,138.0,46.0302,5.7666
01216,Lhuis,01,84.0,2024,8,8.0,0.0,0.0,100.0,199332,2206,91,886.0,45.7469,5.5398
01219,Lompnas,01,84.0,2024,1,1.0,0.0,0.0,100.0,191630,1843,104,171.0,45.8118,5.5263
01224,Loyettes,01,84.0,2024,23,18.0,5.0,22.0,78.0,243478,2306,108,3554.0,45.7953,5.2163
01225,Lurcy,01,84.0,2024,4,4.0,0.0,0.0,100.0,438812,3392,126,406.0,46.0628,4.7802
01227,Magnieu,01,84.0,2024,7,7.0,0.0,0.0,100.0,203986,2107,95,651.0,45.7763,5.7197
01228,Maillat,01,84.0,2024,3,2.0,1.0,33.0,67.0,212280,3225,75,669.0,46.1204,5.535
01229,Malafretaz,01,84.0,2024,12,12.0,0.0,0.0,100.0,210904,1960,112,1257.0,46.3299,5.1462
01230,Mantenay-Montlin,01,84.0,2024,4,4.0,0.0,0.0,100.0,237625,1688,147,331.0,46.4318,5.1064
01231,Manziat,01,84.0,2024,17,17.0,0.0,0.0,100.0,236734,2251,106,2018.0,46.3651,4.9026
01232,Marboz,01,84.0,2024,20,18.0,2.0,10.0,90.0,225602,2046,111,2264.0,46.3452,5.2461
01233,Marchamp,01,84.0,2024,1,1.0,0.0,0.0,100.0,217750,1502,145,137.0,45.7762,5.5509
01234,Marignieu,01,84.0,2024,1,1.0,0.0,0.0,100.0,318000,1590,200,162.0,45.8023,5.718
01235,Marlieux,01,84.0,2024,8,7.0,1.0,12.0,88.0,208075,1942,101,1185.0,46.0542,5.0756
01236,Marsonnas,01,84.0,2024,12,10.0,2.0,17.0,83.0,168233,1588,108,1039.0,46.3401,5.0608
01237,Martignat,01,84.0,2024,11,4.0,7.0,64.0,36.0,148746,1852,78,1664.0,46.203,5.6099
01238,Massieux,01,84.0,2024,27,24.0,3.0,11.0,89.0,340671,3235,107,2843.0,45.9101,4.8279
01239,Massignieu-de-Rives,01,84.0,2024,7,7.0,0.0,0.0,100.0,240370,1919,116,650.0,45.7564,5.7566
01240,Matafelon-Granges,01,84.0,2024,15,15.0,0.0,0.0,100.0,185289,2257,93,623.0,46.2505,5.5272
01241,Meillonnas,01,84.0,2024,9,9.0,0.0,0.0,100.0,285897,2497,119,1426.0,46.2451,5.3347
01242,Mérignat,01,84.0,2024,1,1.0,0.0,0.0,100.0,135000,1500,90,129.0,46.065,5.4425
01243,Messimy-sur-Saône,01,84.0,2024,8,8.0,0.0,0.0,100.0,298912,3096,100,1338.0,46.048,4.7609
01244,Meximieux,01,84.0,2024,74,43.0,31.0,42.0,58.0,272511,2888,93,8247.0,45.9047,5.2116
01245,Bohas-Meyriat-Rignat,01,84.0,2024,4,4.0,0.0,0.0,100.0,128750,1246,112,938.0,46.1422,5.375
01246,Mézériat,01,84.0,2024,10,10.0,0.0,0.0,100.0,180605,1904,94,2172.0,46.2424,5.0481
01247,Mijoux,01,84.0,2024,21,5.0,16.0,76.0,24.0,92905,2714,40,299.0,46.3593,6.0106
01248,Mionnay,01,84.0,2024,23,15.0,8.0,35.0,65.0,299840,3491,88,2294.0,45.8959,4.9274
01249,Miribel,01,84.0,2024,97,53.0,44.0,45.0,55.0,302801,3275,90,10395.0,45.8444,4.941
01250,Misérieux,01,84.0,2024,18,18.0,0.0,0.0,100.0,313750,2991,108,2008.0,45.9745,4.8138
01252,Mogneneins,01,84.0,2024,6,6.0,0.0,0.0,100.0,273500,2745,101,841.0,46.1454,4.8203
01254,Montagnat,01,84.0,2024,13,13.0,0.0,0.0,100.0,333538,2888,113,2186.0,46.172,5.2776
01255,Montagnieu,01,84.0,2024,4,4.0,0.0,0.0,100.0,182875,2021,102,668.0,45.802,5.4598
01258,Montceaux,01,84.0,2024,7,7.0,0.0,0.0,100.0,265569,2082,125,1196.0,46.0978,4.8041
01259,Montcet,01,84.0,2024,7,7.0,0.0,0.0,100.0,219286,2061,108,709.0,46.2199,5.1123
01260,Le Montellier,01,84.0,2024,1,1.0,0.0,0.0,100.0,295047,2049,144,336.0,45.9284,5.0699
01261,Monthieux,01,84.0,2024,7,7.0,0.0,0.0,100.0,392501,3039,129,664.0,45.9631,4.948
01262,Montluel,01,84.0,2024,61,29.0,32.0,52.0,48.0,229064,2681,84,6895.0,45.8868,5.0185
01263,Montmerle-sur-Saône,01,84.0,2024,36,29.0,7.0,19.0,81.0,280814,2828,99,3799.0,46.0843,4.759
01264,Montracol,01,84.0,2024,5,5.0,0.0,0.0,100.0,271079,2365,122,1018.0,46.182,5.1234
01265,Montréal-la-Cluse,01,84.0,2024,25,18.0,7.0,28.0,72.0,197736,2032,95,3568.0,46.181,5.5976
01266,Montrevel-en-Bresse,01,84.0,2024,22,11.0,11.0,50.0,50.0,171019,2017,88,2743.0,46.3262,5.1122
01267,Nurieux-Volognat,01,84.0,2024,2,2.0,0.0,0.0,100.0,149000,984,134,965.0,46.1855,5.5155
01268,Murs-et-Gélignieux,01,84.0,2024,2,1.0,1.0,50.0,50.0,370000,4028,104,239.0,45.6404,5.6585
01269,Nantua,01,84.0,2024,32,9.0,23.0,72.0,28.0,107500,1234,95,3416.0,46.1486,5.6079
01272,Neuville-les-Dames,01,84.0,2024,14,13.0,1.0,7.0,93.0,211139,2118,100,1565.0,46.1599,5.0103
01273,Neuville-sur-Ain,01,84.0,2024,18,18.0,0.0,0.0,100.0,218897,2102,104,1794.0,46.0909,5.3702
01274,Les Neyrolles,01,84.0,2024,7,7.0,0.0,0.0,100.0,191286,2466,85,628.0,46.1367,5.6354
01275,Neyron,01,84.0,2024,26,21.0,5.0,19.0,81.0,505727,4093,122,2421.0,45.8204,4.9356
01276,Niévroz,01,84.0,2024,13,13.0,0.0,0.0,100.0,377071,3321,116,1662.0,45.8241,5.0615
01277,Nivollet-Montgriffon,01,84.0,2024,3,3.0,0.0,0.0,100.0,100667,1450,70,122.0,46.0002,5.4567
01279,Oncieu,01,84.0,2024,3,3.0,0.0,0.0,100.0,116833,1304,89,72.0,45.9685,5.4716
01280,Ordonnaz,01,84.0,2024,3,2.0,1.0,33.0,67.0,122927,1957,67,151.0,45.8357,5.5439
01281,Ornex,01,84.0,2024,49,16.0,33.0,67.0,33.0,469042,5232,89,5082.0,46.2779,6.0953
01282,Outriaz,01,84.0,2024,3,3.0,0.0,0.0,100.0,136667,1621,80,263.0,46.0631,5.5543
01283,Oyonnax,01,84.0,2024,154,59.0,95.0,62.0,38.0,130659,1564,82,22480.0,46.2599,5.6517
01284,Ozan,01,84.0,2024,6,6.0,0.0,0.0,100.0,211736,2463,86,732.0,46.3863,4.9191
01285,Parcieux,01,84.0,2024,6,5.0,1.0,17.0,83.0,335758,3662,90,1315.0,45.9197,4.8299
01286,Parves et Nattages,01,84.0,2024,7,7.0,0.0,0.0,100.0,299211,2629,117,962.0,45.7318,5.7495
01288,Péron,01,84.0,2024,35,14.0,21.0,60.0,40.0,375230,4132,97,2916.0,46.1933,5.9141
01289,Péronnas,01,84.0,2024,69,40.0,29.0,42.0,58.0,202402,2253,90,6444.0,46.1693,5.2195
01290,Pérouges,01,84.0,2024,9,7.0,2.0,22.0,78.0,274889,3117,89,1387.0,45.8789,5.1791
01291,Perrex,01,84.0,2024,5,5.0,0.0,0.0,100.0,137800,1590,85,869.0,46.2462,4.9718
01293,Peyriat,01,84.0,2024,3,3.0,0.0,0.0,100.0,238340,1981,129,153.0,46.1486,5.506
01294,Peyrieu,01,84.0,2024,11,11.0,0.0,0.0,100.0,204909,2126,96,940.0,45.674,5.6829
01295,Peyzieux-sur-Saône,01,84.0,2024,6,6.0,0.0,0.0,100.0,229625,2006,116,654.0,46.1227,4.8192
01296,Pirajoux,01,84.0,2024,1,1.0,0.0,0.0,100.0,150000,1596,94,397.0,46.386,5.2703
01297,Pizay,01,84.0,2024,9,9.0,0.0,0.0,100.0,265649,2391,116,937.0,45.8906,5.0901
01298,Plagne,01,84.0,2024,1,1.0,0.0,0.0,100.0,72000,2880,25,159.0,46.1889,5.7179
01299,Le Plantay,01,84.0,2024,4,3.0,1.0,25.0,75.0,266250,2409,100,559.0,46.0236,5.0891
01301,Polliat,01,84.0,2024,22,21.0,1.0,5.0,95.0,293210,2471,118,2741.0,46.2504,5.1355
01302,Pollieu,01,84.0,2024,1,1.0,0.0,0.0,100.0,291060,3308,88,167.0,45.7953,5.7463
01303,Poncin,01,84.0,2024,26,23.0,3.0,12.0,88.0,144281,1740,91,1803.0,46.0918,5.4129
01304,Pont-d'Ain,01,84.0,2024,30,23.0,7.0,23.0,77.0,177910,2016,90,2843.0,46.0556,5.3491
01305,Pont-de-Vaux,01,84.0,2024,34,22.0,12.0,35.0,65.0,150266,1700,94,2204.0,46.4415,4.9265
01306,Pont-de-Veyle,01,84.0,2024,12,7.0,5.0,42.0,58.0,190898,1940,88,1594.0,46.2647,4.8818
01307,Port,01,84.0,2024,7,2.0,5.0,71.0,29.0,194143,2272,77,832.0,46.1535,5.581
01308,Pougny,01,84.0,2024,11,9.0,2.0,18.0,82.0,420471,3991,107,871.0,46.1457,5.9492
01310,Prémeyzel,01,84.0,2024,1,1.0,0.0,0.0,100.0,266000,2046,130,244.0,45.6827,5.6423
01311,Prémillieu,01,84.0,2024,2,2.0,0.0,0.0,100.0,168500,1735,98,49.0,45.8785,5.5657
01313,Prévessin-Moëns,01,84.0,2024,110,52.0,58.0,53.0,47.0,534564,5391,100,9153.0,46.2594,6.0722
01314,Priay,01,84.0,2024,17,17.0,0.0,0.0,100.0,211676,2198,97,1842.0,46.019,5.2829
01317,Ramasse,01,84.0,2024,6,6.0,0.0,0.0,100.0,173833,1734,101,336.0,46.1893,5.3569
01318,Rancé,01,84.0,2024,11,11.0,0.0,0.0,100.0,337300,2854,123,775.0,45.9674,4.8665
01319,Relevant,01,84.0,2024,4,4.0,0.0,0.0,100.0,289510,2816,102,465.0,46.0808,4.9399
01320,Replonges,01,84.0,2024,25,23.0,2.0,8.0,92.0,237283,2211,111,3956.0,46.307,4.8784
01321,Revonnas,01,84.0,2024,8,7.0,1.0,12.0,88.0,243162,1979,120,915.0,46.1637,5.3351
01322,Reyrieux,01,84.0,2024,38,35.0,3.0,8.0,92.0,389938,3275,120,5358.0,45.9368,4.8314
01323,Reyssouze,01,84.0,2024,10,10.0,0.0,0.0,100.0,182542,1912,104,996.0,46.4284,4.9145
01325,Rignieux-le-Franc,01,84.0,2024,3,3.0,0.0,0.0,100.0,242333,4762,62,1180.0,45.9513,5.1675
01328,Romans,01,84.0,2024,6,5.0,1.0,17.0,83.0,205261,2574,80,640.0,46.1216,5.0217
01329,Rossillon,01,84.0,2024,2,2.0,0.0,0.0,100.0,87500,1203,74,166.0,45.8359,5.5987
01331,Saint-Alban,01,84.0,2024,3,3.0,0.0,0.0,100.0,177333,1646,107,195.0,46.0968,5.4568
01332,Saint-André-de-Bâgé,01,84.0,2024,9,9.0,0.0,0.0,100.0,319830,2582,130,841.0,46.2975,4.9132
01333,Saint-André-de-Corcy,01,84.0,2024,30,20.0,10.0,33.0,67.0,305600,3538,94,3370.0,45.9287,4.9529
01334,Saint-André-d'Huiriat,01,84.0,2024,7,7.0,0.0,0.0,100.0,248997,2073,114,667.0,46.2163,4.9144
01335,Saint-André-le-Bouchoux,01,84.0,2024,2,2.0,0.0,0.0,100.0,295000,2466,120,409.0,46.1137,5.0775
01336,Saint-André-sur-Vieux-Jonc,01,84.0,2024,8,7.0,1.0,12.0,88.0,204615,2017,102,1229.0,46.15,5.143
01337,Saint-Bénigne,01,84.0,2024,7,7.0,0.0,0.0,100.0,236102,2123,109,1359.0,46.4517,4.952
01338,Groslée-Saint-Benoit,01,84.0,2024,11,11.0,0.0,0.0,100.0,195409,1875,101,1227.0,45.7011,5.5823
01339,Saint-Bernard,01,84.0,2024,13,13.0,0.0,0.0,100.0,480808,4097,123,1590.0,45.95,4.7419
01342,Sainte-Croix,01,84.0,2024,7,6.0,1.0,14.0,86.0,329614,3163,112,544.0,45.8978,5.0477
01343,Saint-Cyr-sur-Menthon,01,84.0,2024,15,15.0,0.0,0.0,100.0,215655,2354,92,1890.0,46.2751,4.9669
01344,Saint-Denis-lès-Bourg,01,84.0,2024,55,41.0,14.0,25.0,75.0,223329,2196,106,6160.0,46.2097,5.1825
01345,Saint-Denis-en-Bugey,01,84.0,2024,26,23.0,3.0,12.0,88.0,171806,2144,81,2246.0,45.9497,5.326
01346,Saint-Didier-d'Aussiat,01,84.0,2024,7,7.0,0.0,0.0,100.0,177743,1900,100,843.0,46.3075,5.0536
01347,Saint-Didier-de-Formans,01,84.0,2024,15,14.0,1.0,7.0,93.0,471934,5015,104,2203.0,45.9587,4.7767
01348,Saint-Didier-sur-Chalaronne,01,84.0,2024,30,24.0,6.0,20.0,80.0,201233,2022,98,2934.0,46.1877,4.823
01349,Saint-Éloi,01,84.0,2024,4,4.0,0.0,0.0,100.0,345375,3306,107,525.0,45.9343,5.1507
01350,Saint-Étienne-du-Bois,01,84.0,2024,18,16.0,2.0,11.0,89.0,184542,2088,90,2584.0,46.2755,5.2793
01351,Saint-Étienne-sur-Chalaronne,01,84.0,2024,10,9.0,1.0,10.0,90.0,212006,2035,109,1637.0,46.1451,4.8694
01352,Saint-Étienne-sur-Reyssouze,01,84.0,2024,7,7.0,0.0,0.0,100.0,143434,1261,119,572.0,46.3998,5.0031
01353,Sainte-Euphémie,01,84.0,2024,16,16.0,0.0,0.0,100.0,377944,3239,119,1757.0,45.9651,4.7927
01354,Saint-Genis-Pouilly,01,84.0,2024,156,44.0,112.0,72.0,28.0,431538,4702,92,14432.0,46.2556,6.0368
01355,Saint-Genis-sur-Menthon,01,84.0,2024,8,8.0,0.0,0.0,100.0,212677,1982,119,490.0,46.281,5.0162
01356,Saint-Georges-sur-Renon,01,84.0,2024,2,2.0,0.0,0.0,100.0,392600,3092,130,228.0,46.1033,5.0286
01357,Saint-Germain-de-Joux,01,84.0,2024,7,6.0,1.0,14.0,86.0,171829,1724,109,507.0,46.1812,5.7435
01358,Saint-Germain-les-Paroisses,01,84.0,2024,3,3.0,0.0,0.0,100.0,207333,1973,114,422.0,45.773,5.6191
01359,Saint-Germain-sur-Renon,01,84.0,2024,2,2.0,0.0,0.0,100.0,105000,2066,54,264.0,46.0764,5.0626
01360,Saint-Jean-de-Gonville,01,84.0,2024,23,15.0,8.0,35.0,65.0,439926,4413,106,2096.0,46.2184,5.9395
01361,Saint-Jean-de-Niost,01,84.0,2024,29,25.0,4.0,14.0,86.0,332583,3093,110,1866.0,45.8384,5.2066
01362,Saint-Jean-de-Thurigneux,01,84.0,2024,8,7.0,1.0,12.0,88.0,316739,3433,96,863.0,45.9597,4.8959
01363,Saint-Jean-le-Vieux,01,84.0,2024,12,11.0,1.0,8.0,92.0,227583,2348,109,1839.0,46.028,5.3799
01364,Saint-Jean-sur-Reyssouze,01,84.0,2024,7,7.0,0.0,0.0,100.0,217371,2068,125,762.0,46.3912,5.0582
01365,Saint-Jean-sur-Veyle,01,84.0,2024,12,12.0,0.0,0.0,100.0,257599,2150,120,1143.0,46.2687,4.9203
01366,Sainte-Julie,01,84.0,2024,6,5.0,1.0,17.0,83.0,300450,2799,108,1094.0,45.8802,5.2837
01367,Saint-Julien-sur-Reyssouze,01,84.0,2024,12,12.0,0.0,0.0,100.0,159479,1852,86,679.0,46.3977,5.1062
01368,Saint-Julien-sur-Veyle,01,84.0,2024,9,9.0,0.0,0.0,100.0,300079,2227,144,859.0,46.2072,4.9559
01369,Saint-Just,01,84.0,2024,6,4.0,2.0,33.0,67.0,221333,1780,135,952.0,46.1948,5.285
01370,Saint-Laurent-sur-Saône,01,84.0,2024,31,3.0,28.0,90.0,10.0,111876,1651,69,1810.0,46.3053,4.8395
01371,Saint-Marcel,01,84.0,2024,7,6.0,1.0,14.0,86.0,319100,3232,98,1340.0,45.9485,4.9862
01372,Saint-Martin-de-Bavel,01,84.0,2024,2,2.0,0.0,0.0,100.0,192500,1927,102,428.0,45.8467,5.6779
01373,Saint-Martin-du-Frêne,01,84.0,2024,8,6.0,2.0,25.0,75.0,204329,1799,106,1023.0,46.1345,5.5711
01374,Saint-Martin-du-Mont,01,84.0,2024,28,28.0,0.0,0.0,100.0,248136,2205,117,2023.0,46.1063,5.33
01375,Saint-Martin-le-Châtel,01,84.0,2024,10,10.0,0.0,0.0,100.0,335390,2018,165,796.0,46.2903,5.1206
01376,Saint-Maurice-de-Beynost,01,84.0,2024,40,15.0,25.0,62.0,38.0,247627,2872,86,4332.0,45.8325,4.9763
01378,Saint-Maurice-de-Gourdans,01,84.0,2024,19,18.0,1.0,5.0,95.0,334458,3421,101,2903.0,45.819,5.172
01379,Saint-Maurice-de-Rémens,01,84.0,2024,8,7.0,1.0,12.0,88.0,229844,2581,93,756.0,45.9542,5.2706
01380,Saint-Nizier-le-Bouchoux,01,84.0,2024,5,5.0,0.0,0.0,100.0,178626,1870,112,580.0,46.4549,5.1716
01381,Saint-Nizier-le-Désert,01,84.0,2024,11,11.0,0.0,0.0,100.0,305776,2902,109,921.0,46.0518,5.1471
01382,Sainte-Olive,01,84.0,2024,2,2.0,0.0,0.0,100.0,409000,2690,176,357.0,46.0147,4.9349
01383,Saint-Paul-de-Varax,01,84.0,2024,8,8.0,0.0,0.0,100.0,272125,2289,124,1634.0,46.0949,5.1309
01384,Saint-Rambert-en-Bugey,01,84.0,2024,20,12.0,8.0,40.0,60.0,109479,1337,82,2190.0,45.953,5.4418
01385,Saint-Rémy,01,84.0,2024,8,5.0,3.0,38.0,62.0,232560,2258,100,915.0,46.1857,5.1646
01386,Saint-Sorlin-en-Bugey,01,84.0,2024,14,12.0,2.0,14.0,86.0,227821,2163,102,1152.0,45.8863,5.369
01387,Saint-Sulpice,01,84.0,2024,1,1.0,0.0,0.0,100.0,138500,1505,92,260.0,46.3215,5.0406
01388,Saint-Trivier-de-Courtes,01,84.0,2024,10,10.0,0.0,0.0,100.0,166650,1778,102,1125.0,46.458,5.0672
01389,Saint-Trivier-sur-Moignans,01,84.0,2024,11,8.0,3.0,27.0,73.0,224318,2516,88,1963.0,46.0632,4.8984
01390,Saint-Vulbas,01,84.0,2024,16,16.0,0.0,0.0,100.0,282720,2932,96,1247.0,45.8234,5.267
01391,Salavre,01,84.0,2024,4,4.0,0.0,0.0,100.0,143498,1848,74,306.0,46.363,5.3457
01392,Samognat,01,84.0,2024,6,6.0,0.0,0.0,100.0,171817,1689,100,630.0,46.2732,5.5826
01393,Sandrans,01,84.0,2024,4,4.0,0.0,0.0,100.0,310000,3336,125,582.0,46.0709,4.9824
01396,Sault-Brénaz,01,84.0,2024,11,9.0,2.0,18.0,82.0,197625,2092,93,1021.0,45.8612,5.4007
01397,Sauverny,01,84.0,2024,13,10.0,3.0,23.0,77.0,733022,5080,142,1022.0,46.3132,6.1102
01398,Savigneux,01,84.0,2024,16,12.0,4.0,25.0,75.0,315844,2727,112,1469.0,45.9946,4.8559
01399,Ségny,01,84.0,2024,26,17.0,9.0,35.0,65.0,547367,5081,110,2941.0,46.2944,6.0732
01400,Seillonnaz,01,84.0,2024,1,1.0,0.0,0.0,100.0,50000,625,80,134.0,45.8006,5.504
01401,Sergy,01,84.0,2024,27,19.0,8.0,30.0,70.0,619651,5304,118,2288.0,46.2615,5.9872
01402,Sermoyer,01,84.0,2024,6,6.0,0.0,0.0,100.0,200525,2149,96,670.0,46.4987,4.9733
01403,Serrières-de-Briord,01,84.0,2024,14,12.0,2.0,14.0,86.0,176682,2158,85,1317.0,45.8129,5.4424
01404,Serrières-sur-Ain,01,84.0,2024,2,2.0,0.0,0.0,100.0,150000,3489,43,135.0,46.149,5.4472
01405,Servas,01,84.0,2024,12,11.0,1.0,8.0,92.0,221709,2085,109,1286.0,46.1366,5.1845
01406,Servignat,01,84.0,2024,1,1.0,0.0,0.0,100.0,197000,2165,91,186.0,46.4354,5.0587
01407,Seyssel,01,84.0,2024,11,8.0,3.0,27.0,73.0,242236,2954,90,1008.0,45.9477,5.8257
01408,Simandre-sur-Suran,01,84.0,2024,7,7.0,0.0,0.0,100.0,160929,1410,111,673.0,46.235,5.4214
01411,Souclin,01,84.0,2024,2,2.0,0.0,0.0,100.0,151500,1561,91,262.0,45.8811,5.4368
01412,Sulignat,01,84.0,2024,6,6.0,0.0,0.0,100.0,264504,3527,92,602.0,46.1727,4.9601
01415,Talissieu,01,84.0,2024,3,2.0,1.0,33.0,67.0,188957,2751,68,508.0,45.8627,5.7199
01416,Tenay,01,84.0,2024,16,14.0,2.0,12.0,88.0,111550,1450,79,1030.0,45.9222,5.5147
01418,Thil,01,84.0,2024,7,7.0,0.0,0.0,100.0,325933,4025,83,1261.0,45.8184,5.0189
01419,Thoiry,01,84.0,2024,64,35.0,29.0,45.0,55.0,498397,4922,101,6569.0,46.2448,5.9685
01420,Thoissey,01,84.0,2024,22,4.0,18.0,82.0,18.0,118501,1589,71,1626.0,46.1697,4.7963
01421,Torcieu,01,84.0,2024,10,10.0,0.0,0.0,100.0,167490,1909,91,739.0,45.9189,5.4056
01422,Tossiat,01,84.0,2024,13,9.0,4.0,31.0,69.0,187622,2093,92,1425.0,46.1355,5.3076
01423,Toussieux,01,84.0,2024,6,6.0,0.0,0.0,100.0,442705,3526,126,1257.0,45.961,4.8289
01424,Tramoyes,01,84.0,2024,13,12.0,1.0,8.0,92.0,447490,3919,113,1852.0,45.8742,4.9624
01425,La Tranclière,01,84.0,2024,1,1.0,0.0,0.0,100.0,390000,1548,252,290.0,46.0915,5.2656
01426,Val-Revermont,01,84.0,2024,22,22.0,0.0,0.0,100.0,203997,1964,113,2488.0,46.2816,5.3537
01427,Trévoux,01,84.0,2024,63,33.0,30.0,48.0,52.0,277397,3028,92,7013.0,45.9398,4.771
01428,Valeins,01,84.0,2024,3,3.0,0.0,0.0,100.0,483333,2871,161,128.0,46.1145,4.8646
01429,Vandeins,01,84.0,2024,5,5.0,0.0,0.0,100.0,210000,2193,93,732.0,46.2155,5.0786
01430,Varambon,01,84.0,2024,4,4.0,0.0,0.0,100.0,173927,1798,91,675.0,46.0443,5.2909
01431,Vaux-en-Bugey,01,84.0,2024,20,19.0,1.0,5.0,95.0,204908,2457,83,1201.0,45.9184,5.3612
01432,Verjon,01,84.0,2024,1,1.0,0.0,0.0,100.0,450000,1860,242,346.0,46.3466,5.3472
01433,Vernoux,01,84.0,2024,4,4.0,0.0,0.0,100.0,199396,1986,102,290.0,46.4861,5.1036
01434,Versailleux,01,84.0,2024,1,1.0,0.0,0.0,100.0,199000,1970,101,497.0,45.9883,5.115
01435,Versonnex,01,84.0,2024,20,15.0,5.0,25.0,75.0,558396,5083,110,2182.0,46.2992,6.1008
01436,Vesancy,01,84.0,2024,2,1.0,1.0,50.0,50.0,511180,6184,80,520.0,46.3634,6.0856
01437,Vescours,01,84.0,2024,1,1.0,0.0,0.0,100.0,218000,2344,93,221.0,46.4743,5.0286
01441,Vieu-d'Izenave,01,84.0,2024,1,1.0,0.0,0.0,100.0,120000,839,143,719.0,46.0823,5.5555
01443,Villars-les-Dombes,01,84.0,2024,48,34.0,14.0,29.0,71.0,236611,2681,91,5163.0,46.0,5.0443
01444,Villebois,01,84.0,2024,13,13.0,0.0,0.0,100.0,232950,1896,117,1206.0,45.8499,5.4483
01445,Villemotier,01,84.0,2024,7,6.0,1.0,14.0,86.0,140729,1676,84,612.0,46.3418,5.3087
01446,Villeneuve,01,84.0,2024,4,4.0,0.0,0.0,100.0,353938,2748,130,1638.0,46.0346,4.8598
01447,Villereversure,01,84.0,2024,8,8.0,0.0,0.0,100.0,176750,1713,103,1420.0,46.1939,5.3936
01448,Villes,01,84.0,2024,4,4.0,0.0,0.0,100.0,326212,2736,114,381.0,46.0952,5.7598
01449,Villette-sur-Ain,01,84.0,2024,8,8.0,0.0,0.0,100.0,335975,3156,108,780.0,46.0125,5.254
01450,Villieu-Loyes-Mollon,01,84.0,2024,48,42.0,6.0,12.0,88.0,261275,2785,99,3849.0,45.929,5.2265
01451,Viriat,01,84.0,2024,48,42.0,6.0,12.0,88.0,250555,2412,104,7102.0,46.2522,5.2257
01452,Virieu-le-Grand,01,84.0,2024,22,15.0,7.0,32.0,68.0,155371,1625,95,1111.0,45.8465,5.639
01453,Arvière-en-Valromey,01,84.0,2024,6,6.0,0.0,0.0,100.0,139648,1453,90,717.0,45.9153,5.7346
01454,Virignin,01,84.0,2024,8,6.0,2.0,25.0,75.0,272475,2687,101,1144.0,45.7282,5.7149
01457,Vonnas,01,84.0,2024,42,31.0,11.0,26.0,74.0,212204,2301,105,3255.0,46.2132,4.9945
02001,Abbécourt,02,32.0,2024,6,6.0,0.0,0.0,100.0,92350,950,96,518.0,49.5997,3.1824
02002,Achery,02,32.0,2024,7,7.0,0.0,0.0,100.0,126421,1382,101,584.0,49.6935,3.3974
02003,Acy,02,32.0,2024,11,11.0,0.0,0.0,100.0,153089,1481,108,1004.0,49.3476,3.4188
02004,Agnicourt-et-Séchelles,02,32.0,2024,2,2.0,0.0,0.0,100.0,91000,834,95,189.0,49.7172,3.9637
02005,Aguilcourt,02,32.0,2024,4,4.0,0.0,0.0,100.0,234866,1960,124,417.0,49.3953,3.9663
02006,Aisonville-et-Bernoville,02,32.0,2024,1,1.0,0.0,0.0,100.0,162000,1500,108,259.0,49.9313,3.5121
02008,Aizy-Jouy,02,32.0,2024,3,3.0,0.0,0.0,100.0,93833,1295,84,306.0,49.4372,3.5128
02009,Alaincourt,02,32.0,2024,2,2.0,0.0,0.0,100.0,115000,954,120,517.0,49.7681,3.3692
02010,Allemant,02,32.0,2024,1,1.0,0.0,0.0,100.0,170000,1429,119,163.0,49.4639,3.4591
02011,Ambleny,02,32.0,2024,14,14.0,0.0,0.0,100.0,206550,1959,104,1205.0,49.3741,3.1681
02012,Ambrief,02,32.0,2024,1,1.0,0.0,0.0,100.0,172500,701,246,79.0,49.3226,3.4058
02013,Amifontaine,02,32.0,2024,2,2.0,0.0,0.0,100.0,139325,1462,96,391.0,49.4977,3.9218
02014,Amigny-Rouy,02,32.0,2024,10,10.0,0.0,0.0,100.0,151040,1558,101,707.0,49.6111,3.3059
02015,Ancienville,02,32.0,2024,2,2.0,0.0,0.0,100.0,523460,2336,196,78.0,49.2196,3.2065
02016,Andelain,02,32.0,2024,2,2.0,0.0,0.0,100.0,111325,1102,104,212.0,49.6428,3.3686
02017,Anguilcourt-le-Sart,02,32.0,2024,1,1.0,0.0,0.0,100.0,50000,833,60,274.0,49.6971,3.424
02018,Anizy-le-Grand,02,32.0,2024,28,28.0,0.0,0.0,100.0,118623,1403,85,2472.0,49.5159,3.4426
02019,Annois,02,32.0,2024,2,2.0,0.0,0.0,100.0,106000,1602,64,349.0,49.7122,3.1761
02020,Any-Martin-Rieux,02,32.0,2024,6,6.0,0.0,0.0,100.0,121242,888,130,456.0,49.8851,4.219
02022,Arcy-Sainte-Restitue,02,32.0,2024,4,4.0,0.0,0.0,100.0,88500,1233,70,396.0,49.2557,3.4776
02025,Artemps,02,32.0,2024,3,3.0,0.0,0.0,100.0,148667,1392,109,361.0,49.7623,3.196
02027,Assis-sur-Serre,02,32.0,2024,8,8.0,0.0,0.0,100.0,151469,1165,135,209.0,49.6788,3.5547
02028,Athies-sous-Laon,02,32.0,2024,26,26.0,0.0,0.0,100.0,135515,1463,93,2578.0,49.5754,3.6905
02029,Attilly,02,32.0,2024,2,2.0,0.0,0.0,100.0,121000,1255,103,337.0,49.8557,3.1533
02030,Aubencheul-aux-Bois,02,32.0,2024,4,4.0,0.0,0.0,100.0,140225,1278,111,238.0,50.0248,3.2614
02031,Aubenton,02,32.0,2024,5,5.0,0.0,0.0,100.0,60578,691,94,658.0,49.8254,4.1928
02032,Aubigny-aux-Kaisnes,02,32.0,2024,2,2.0,0.0,0.0,100.0,124500,1254,100,231.0,49.7724,3.1167
02034,Audignicourt,02,32.0,2024,2,2.0,0.0,0.0,100.0,58950,844,79,104.0,49.4779,3.1268
02035,Audigny,02,32.0,2024,4,4.0,0.0,0.0,100.0,193050,1392,151,273.0,49.8651,3.6314
02036,Augy,02,32.0,2024,1,1.0,0.0,0.0,100.0,27000,509,53,72.0,49.3405,3.5117
02037,Aulnois-sous-Laon,02,32.0,2024,12,12.0,0.0,0.0,100.0,144348,1316,113,1348.0,49.6213,3.6111
02039,Autremencourt,02,32.0,2024,1,1.0,0.0,0.0,100.0,144000,766,188,176.0,49.7042,3.7931
02040,Autreppes,02,32.0,2024,1,1.0,0.0,0.0,100.0,91000,611,149,175.0,49.8963,3.8571
02041,Autreville,02,32.0,2024,8,8.0,0.0,0.0,100.0,168000,1631,99,777.0,49.5878,3.2378
02042,Azy-sur-Marne,02,32.0,2024,3,3.0,0.0,0.0,100.0,157333,2046,79,369.0,49.0061,3.3575
02043,Bagneux,02,32.0,2024,1,1.0,0.0,0.0,100.0,80000,1333,60,62.0,49.4595,3.2776
02044,Bancigny,02,32.0,2024,1,1.0,0.0,0.0,100.0,43500,580,75,26.0,49.7997,4.0383
02046,Barenton-Bugny,02,32.0,2024,6,6.0,0.0,0.0,100.0,137658,1139,125,555.0,49.6217,3.6612
02047,Barenton-Cel,02,32.0,2024,1,1.0,0.0,0.0,100.0,61000,343,178,108.0,49.6466,3.6448
02048,Barenton-sur-Serre,02,32.0,2024,2,2.0,0.0,0.0,100.0,99500,1152,88,130.0,49.6682,3.6929
02049,Barisis-aux-Bois,02,32.0,2024,4,4.0,0.0,0.0,100.0,163875,1744,92,752.0,49.5814,3.332
02050,Barzy-en-Thiérache,02,32.0,2024,4,4.0,0.0,0.0,100.0,129500,1528,84,316.0,50.0378,3.7522
02051,Barzy-sur-Marne,02,32.0,2024,3,3.0,0.0,0.0,100.0,136667,1758,81,380.0,49.09,3.5586
02052,Bassoles-Aulers,02,32.0,2024,4,4.0,0.0,0.0,100.0,61975,938,70,131.0,49.5328,3.3828
02053,Vallées en Champagne,02,32.0,2024,5,5.0,0.0,0.0,100.0,95600,1151,88,599.0,49.0009,3.6203
02054,Bazoches-et-Saint-Thibaut,02,32.0,2024,5,5.0,0.0,0.0,100.0,150000,1748,91,516.0,49.2991,3.6184
02055,Beaumé,02,32.0,2024,1,1.0,0.0,0.0,100.0,71200,975,73,82.0,49.8187,4.1529
02056,Beaumont-en-Beine,02,32.0,2024,2,2.0,0.0,0.0,100.0,126900,1383,96,168.0,49.6876,3.1317
02057,Beaurevoir,02,32.0,2024,12,12.0,0.0,0.0,100.0,66107,836,79,1281.0,49.9965,3.332
02058,Beaurieux,02,32.0,2024,3,3.0,0.0,0.0,100.0,131417,1240,102,794.0,49.4029,3.7594
02059,Beautor,02,32.0,2024,26,26.0,0.0,0.0,100.0,83898,1031,81,2579.0,49.6472,3.3361
02060,Beauvois-en-Vermandois,02,32.0,2024,1,1.0,0.0,0.0,100.0,93500,649,144,263.0,49.8331,3.1023
02061,Becquigny,02,32.0,2024,2,2.0,0.0,0.0,100.0,77500,796,94,268.0,50.0143,3.458
02062,Belleau,02,32.0,2024,1,1.0,0.0,0.0,100.0,86000,1365,63,131.0,49.0803,3.3036
02063,Bellenglise,02,32.0,2024,7,7.0,0.0,0.0,100.0,87786,1010,88,378.0,49.9241,3.2431
02064,Belleu,02,32.0,2024,25,24.0,1.0,4.0,96.0,144406,1749,86,3659.0,49.3597,3.3439
02065,Bellicourt,02,32.0,2024,5,5.0,0.0,0.0,100.0,110450,1016,118,560.0,49.9581,3.2284
02067,Bergues-sur-Sambre,02,32.0,2024,5,5.0,0.0,0.0,100.0,121660,1146,112,205.0,50.03,3.7114
02069,Berlise,02,32.0,2024,2,2.0,0.0,0.0,100.0,94000,974,94,104.0,49.6628,4.1104
02070,Bernot,02,32.0,2024,4,4.0,0.0,0.0,100.0,86480,918,84,431.0,49.8827,3.4827
02071,Berny-Rivière,02,32.0,2024,4,4.0,0.0,0.0,100.0,133725,1506,88,631.0,49.4118,3.152
02072,Berrieux,02,32.0,2024,3,3.0,0.0,0.0,100.0,140133,868,160,178.0,49.4828,3.8531
02073,Berry-au-Bac,02,32.0,2024,1,1.0,0.0,0.0,100.0,240000,1967,122,722.0,49.4076,3.8947
02074,Bertaucourt-Epourdon,02,32.0,2024,6,6.0,0.0,0.0,100.0,142435,1288,113,601.0,49.6283,3.3988
02075,Berthenicourt,02,32.0,2024,4,4.0,0.0,0.0,100.0,160275,3363,163,203.0,49.7787,3.373
02076,Bertricourt,02,32.0,2024,1,1.0,0.0,0.0,100.0,278150,2060,135,159.0,49.3975,4.0116
02078,Besmé,02,32.0,2024,2,2.0,0.0,0.0,100.0,120450,1356,94,166.0,49.5348,3.1657
02079,Besmont,02,32.0,2024,2,2.0,0.0,0.0,100.0,125000,840,149,132.0,49.8209,4.116
02080,Besny-et-Loizy,02,32.0,2024,3,3.0,0.0,0.0,100.0,141167,1206,112,309.0,49.5914,3.5778
02081,Béthancourt-en-Vaux,02,32.0,2024,2,2.0,0.0,0.0,100.0,75000,1077,70,421.0,49.6274,3.1376
02082,Beugneux,02,32.0,2024,1,1.0,0.0,0.0,100.0,34000,567,60,120.0,49.2243,3.4187
02083,Beuvardes,02,32.0,2024,10,10.0,0.0,0.0,100.0,118710,1084,116,736.0,49.1278,3.4884
02084,Bézu-le-Guéry,02,32.0,2024,1,1.0,0.0,0.0,100.0,197000,1698,116,248.0,49.0101,3.2283
02085,Bézu-Saint-Germain,02,32.0,2024,7,7.0,0.0,0.0,100.0,173357,1840,95,991.0,49.1045,3.4082
02086,Bichancourt,02,32.0,2024,13,13.0,0.0,0.0,100.0,147277,1199,125,979.0,49.5787,3.2135
02087,Bieuxy,02,32.0,2024,1,1.0,0.0,0.0,100.0,50000,714,70,31.0,49.4469,3.2687
02088,Bièvres,02,32.0,2024,1,1.0,0.0,0.0,100.0,183550,1073,171,80.0,49.4923,3.7141
02089,Billy-sur-Aisne,02,32.0,2024,9,9.0,0.0,0.0,100.0,144606,1869,82,1130.0,49.3555,3.3753
02090,Billy-sur-Ourcq,02,32.0,2024,1,1.0,0.0,0.0,100.0,152500,1386,110,194.0,49.2233,3.301
02091,Blanzy-lès-Fismes,02,32.0,2024,1,1.0,0.0,0.0,100.0,140000,1077,130,98.0,49.3378,3.6702
02093,Blérancourt,02,32.0,2024,18,18.0,0.0,0.0,100.0,139600,1460,101,1162.0,49.51,3.149
02094,Blesmes,02,32.0,2024,4,4.0,0.0,0.0,100.0,168000,1765,108,474.0,49.0258,3.4628
02095,Bohain-en-Vermandois,02,32.0,2024,70,70.0,0.0,0.0,100.0,69603,777,88,5605.0,49.9887,3.464
02096,Bois-lès-Pargny,02,32.0,2024,2,2.0,0.0,0.0,100.0,215012,848,250,187.0,49.7383,3.6567
02097,Boncourt,02,32.0,2024,2,2.0,0.0,0.0,100.0,69925,899,71,272.0,49.6287,3.9553
02098,Bonneil,02,32.0,2024,6,6.0,0.0,0.0,100.0,192520,1827,103,375.0,49.0077,3.3476
02099,Bonnesvalyn,02,32.0,2024,3,3.0,0.0,0.0,100.0,145768,1951,75,212.0,49.1235,3.3273
02100,Bony,02,32.0,2024,3,3.0,0.0,0.0,100.0,158833,1360,122,137.0,49.9896,3.218
02101,Bosmont-sur-Serre,02,32.0,2024,4,4.0,0.0,0.0,100.0,100750,1085,98,170.0,49.7381,3.8664
02102,Bouconville-Vauclair,02,32.0,2024,2,2.0,0.0,0.0,100.0,198948,1393,144,181.0,49.4606,3.7609
02103,Boué,02,32.0,2024,16,16.0,0.0,0.0,100.0,107488,1100,102,1315.0,50.0101,3.7126
02104,Bouffignereux,02,32.0,2024,3,3.0,0.0,0.0,100.0,152742,2109,72,96.0,49.3776,3.847
02105,Bouresches,02,32.0,2024,4,4.0,0.0,0.0,100.0,158000,906,158,183.0,49.0665,3.3191
02106,Bourg-et-Comin,02,32.0,2024,6,6.0,0.0,0.0,100.0,115733,1557,76,809.0,49.4038,3.6565
02109,La Bouteille,02,32.0,2024,3,3.0,0.0,0.0,100.0,123333,1370,89,464.0,49.8738,3.9602
02110,Braine,02,32.0,2024,20,19.0,1.0,5.0,95.0,140466,1395,102,2248.0,49.3488,3.5357
02111,Brancourt-en-Laonnois,02,32.0,2024,4,4.0,0.0,0.0,100.0,83250,1114,74,702.0,49.517,3.4128
02112,Brancourt-le-Grand,02,32.0,2024,3,3.0,0.0,0.0,100.0,125633,1131,109,554.0,49.9798,3.3956
02114,Brasles,02,32.0,2024,13,12.0,1.0,8.0,92.0,178454,2107,86,1788.0,49.0579,3.4195
02118,Braye,02,32.0,2024,1,1.0,0.0,0.0,100.0,120000,1429,84,129.0,49.4222,3.3769
02120,Brenelle,02,32.0,2024,1,1.0,0.0,0.0,100.0,80000,1333,60,193.0,49.3694,3.5459
02123,Brissay-Choigny,02,32.0,2024,3,3.0,0.0,0.0,100.0,144500,1377,104,296.0,49.7224,3.4042
02124,Brissy-Hamégicourt,02,32.0,2024,6,6.0,0.0,0.0,100.0,90957,1348,74,653.0,49.7458,3.4011
02126,Brunehamel,02,32.0,2024,5,5.0,0.0,0.0,100.0,82200,719,118,463.0,49.7686,4.188
02128,Bruyères-et-Montbérault,02,32.0,2024,30,29.0,1.0,3.0,97.0,169997,1695,103,1411.0,49.5184,3.6698
02129,Bruys,02,32.0,2024,1,1.0,0.0,0.0,100.0,30000,429,70,20.0,49.2595,3.5669
02130,Bucilly,02,32.0,2024,3,3.0,0.0,0.0,100.0,190667,903,213,204.0,49.8636,4.0938
02131,Bucy-le-Long,02,32.0,2024,21,20.0,1.0,5.0,95.0,164484,1813,92,1947.0,49.39,3.3923
02133,Bucy-lès-Pierrepont,02,32.0,2024,4,4.0,0.0,0.0,100.0,93375,943,95,410.0,49.6494,3.904
02134,Buire,02,32.0,2024,9,9.0,0.0,0.0,100.0,102301,1249,79,795.0,49.908,4.0561
02135,Buironfosse,02,32.0,2024,12,12.0,0.0,0.0,100.0,98108,942,105,1122.0,49.958,3.8371
02138,Buzancy,02,32.0,2024,2,2.0,0.0,0.0,100.0,178300,2672,68,175.0,49.3086,3.3487
02139,Caillouël-Crépigny,02,32.0,2024,4,4.0,0.0,0.0,100.0,133425,1213,111,459.0,49.6174,3.1226
02140,Camelin,02,32.0,2024,8,8.0,0.0,0.0,100.0,117500,1447,82,426.0,49.5244,3.1243
02141,La Capelle,02,32.0,2024,15,14.0,1.0,7.0,93.0,76933,863,89,1745.0,49.9705,3.9146
02142,Castres,02,32.0,2024,3,3.0,0.0,0.0,100.0,214967,2205,97,246.0,49.803,3.2576
02143,Le Catelet,02,32.0,2024,2,2.0,0.0,0.0,100.0,70000,505,150,186.0,50.0008,3.2425
02144,Caulaincourt,02,32.0,2024,2,2.0,0.0,0.0,100.0,122500,1423,102,143.0,49.8646,3.1078
02145,Caumont,02,32.0,2024,3,3.0,0.0,0.0,100.0,178833,1459,124,547.0,49.6374,3.173
02148,Celles-sur-Aisne,02,32.0,2024,2,2.0,0.0,0.0,100.0,193500,1733,113,248.0,49.4135,3.4701
02150,Cerny-en-Laonnois,02,32.0,2024,1,1.0,0.0,0.0,100.0,75000,1389,54,63.0,49.4492,3.6803
02151,Cerny-lès-Bucy,02,32.0,2024,2,2.0,0.0,0.0,100.0,105475,1372,70,111.0,49.5791,3.5466
02153,Cessières-Suzy,02,32.0,2024,7,7.0,0.0,0.0,100.0,143779,1566,94,801.0,49.5575,3.4817
02154,Chacrise,02,32.0,2024,2,2.0,0.0,0.0,100.0,129235,914,114,375.0,49.3008,3.3964
02156,Chalandry,02,32.0,2024,5,5.0,0.0,0.0,100.0,121600,1252,102,234.0,49.6691,3.6474
02157,Chambry,02,32.0,2024,3,3.0,0.0,0.0,100.0,130000,1652,79,827.0,49.5985,3.6719
02158,Chamouille,02,32.0,2024,4,4.0,0.0,0.0,100.0,149975,1666,96,272.0,49.4723,3.671
02159,Champs,02,32.0,2024,2,2.0,0.0,0.0,100.0,52500,635,84,313.0,49.538,3.257
02160,Chaourse,02,32.0,2024,7,7.0,0.0,0.0,100.0,59616,772,75,495.0,49.703,3.9837
02162,La Chapelle-sur-Chézy,02,32.0,2024,1,1.0,0.0,0.0,100.0,280000,1944,144,301.0,48.9495,3.375
02163,Charly-sur-Marne,02,32.0,2024,16,15.0,1.0,6.0,94.0,197250,1952,99,2594.0,48.9821,3.2936
02164,Le Charmel,02,32.0,2024,3,3.0,0.0,0.0,100.0,128167,1475,90,323.0,49.1106,3.5446
02165,Charmes,02,32.0,2024,12,12.0,0.0,0.0,100.0,81771,934,92,1568.0,49.6524,3.3834
02166,Chartèves,02,32.0,2024,6,6.0,0.0,0.0,100.0,168064,2750,71,361.0,49.0894,3.504
02167,Chassemy,02,32.0,2024,5,5.0,0.0,0.0,100.0,196600,1502,140,895.0,49.3778,3.5046
02168,Château-Thierry,02,32.0,2024,119,60.0,59.0,50.0,50.0,141730,1813,80,15097.0,49.0556,3.3784
02169,Châtillon-lès-Sons,02,32.0,2024,1,1.0,0.0,0.0,100.0,75000,670,112,83.0,49.7629,3.6986
02172,Chaudun,02,32.0,2024,2,2.0,0.0,0.0,100.0,164700,1532,105,238.0,49.3141,3.2508
02173,Chauny,02,32.0,2024,134,118.0,16.0,12.0,88.0,109183,1408,80,11596.0,49.6185,3.2192
02174,Chavignon,02,32.0,2024,7,7.0,0.0,0.0,100.0,198800,1680,132,859.0,49.4782,3.5155
02175,Chavigny,02,32.0,2024,1,1.0,0.0,0.0,100.0,92700,1288,72,153.0,49.4229,3.309
02176,Chavonne,02,32.0,2024,2,2.0,0.0,0.0,100.0,127500,881,144,214.0,49.4081,3.5614
02177,Chérêt,02,32.0,2024,4,4.0,0.0,0.0,100.0,145825,1304,107,147.0,49.5147,3.6878
02178,Chermizy-Ailles,02,32.0,2024,1,1.0,0.0,0.0,100.0,237000,1756,135,127.0,49.464,3.7196
02179,Chéry-Chartreuve,02,32.0,2024,4,4.0,0.0,0.0,100.0,81975,771,108,378.0,49.2529,3.6081
02180,Chéry-lès-Pouilly,02,32.0,2024,5,5.0,0.0,0.0,100.0,155740,1513,99,742.0,49.6479,3.5886
02181,Chéry-lès-Rozoy,02,32.0,2024,1,1.0,0.0,0.0,100.0,104500,1045,100,98.0,49.7245,4.1026
02182,Chevennes,02,32.0,2024,1,1.0,0.0,0.0,100.0,71000,676,105,136.0,49.8196,3.7386
02185,Chézy-en-Orxois,02,32.0,2024,2,2.0,0.0,0.0,100.0,78500,906,84,389.0,49.1247,3.1565
02186,Chézy-sur-Marne,02,32.0,2024,16,14.0,2.0,12.0,88.0,170250,1666,108,1296.0,48.9857,3.3882
02187,Chierry,02,32.0,2024,15,14.0,1.0,7.0,93.0,182800,2122,86,1195.0,49.0326,3.4321
02188,Chigny,02,32.0,2024,1,1.0,0.0,0.0,100.0,40000,625,64,140.0,49.9291,3.7728
02189,Chivres-en-Laonnois,02,32.0,2024,3,3.0,0.0,0.0,100.0,158350,1446,111,359.0,49.6256,3.8576
02190,Chivres-Val,02,32.0,2024,2,2.0,0.0,0.0,100.0,162500,1712,104,526.0,49.4048,3.4371
02191,Chivy-lès-Étouvelles,02,32.0,2024,5,5.0,0.0,0.0,100.0,101520,1306,79,484.0,49.5334,3.5838
02192,Chouy,02,32.0,2024,5,5.0,0.0,0.0,100.0,103400,1164,100,364.0,49.2154,3.2433
02193,Cierges,02,32.0,2024,1,1.0,0.0,0.0,100.0,116000,558,208,62.0,49.1659,3.6022
02194,Cilly,02,32.0,2024,2,2.0,0.0,0.0,100.0,152225,1882,81,173.0,49.7473,3.8421
02195,Ciry-Salsogne,02,32.0,2024,3,3.0,0.0,0.0,100.0,180500,1817,102,882.0,49.3693,3.4664
02196,Clacy-et-Thierret,02,32.0,2024,1,1.0,0.0,0.0,100.0,42000,467,90,289.0,49.5546,3.5651
02197,Clairfontaine,02,32.0,2024,5,5.0,0.0,0.0,100.0,111000,1158,94,509.0,49.969,3.9919
02198,Clamecy,02,32.0,2024,6,6.0,0.0,0.0,100.0,153100,1638,99,243.0,49.4274,3.3654
02199,Clastres,02,32.0,2024,6,6.0,0.0,0.0,100.0,105000,1164,86,589.0,49.7491,3.228
02201,Cœuvres-et-Valsery,02,32.0,2024,5,5.0,0.0,0.0,100.0,156874,1703,96,467.0,49.324,3.1496
02203,Coincy,02,32.0,2024,14,14.0,0.0,0.0,100.0,152043,1447,102,1308.0,49.1548,3.4331
02204,Coingt,02,32.0,2024,2,2.0,0.0,0.0,100.0,56000,778,75,61.0,49.7928,4.0956
02205,Colligis-Crandelain,02,32.0,2024,5,5.0,0.0,0.0,100.0,88277,1055,90,207.0,49.4696,3.628
02208,Concevreux,02,32.0,2024,2,2.0,0.0,0.0,100.0,172000,1672,103,256.0,49.3781,3.7828
02209,Condé-en-Brie,02,32.0,2024,5,5.0,0.0,0.0,100.0,128800,2127,64,654.0,48.9999,3.5602
02210,Condé-sur-Aisne,02,32.0,2024,6,6.0,0.0,0.0,100.0,128481,1487,86,352.0,49.4014,3.4684
02211,Condé-sur-Suippe,02,32.0,2024,4,4.0,0.0,0.0,100.0,162475,1984,83,357.0,49.4147,3.9447
02212,Condren,02,32.0,2024,8,8.0,0.0,0.0,100.0,86832,1128,74,674.0,49.6332,3.2767
02213,Connigis,02,32.0,2024,1,1.0,0.0,0.0,100.0,95000,1439,66,306.0,49.0357,3.532
02214,Contescourt,02,32.0,2024,1,1.0,0.0,0.0,100.0,195900,1180,166,61.0,49.7921,3.2343
02215,Corbeny,02,32.0,2024,8,8.0,0.0,0.0,100.0,169956,1630,117,851.0,49.4613,3.8256
02216,Corcy,02,32.0,2024,3,3.0,0.0,0.0,100.0,141467,1576,90,332.0,49.2528,3.1957
02217,Coucy-le-Château-Auffrique,02,32.0,2024,10,10.0,0.0,0.0,100.0,139540,1501,95,990.0,49.514,3.3178
02218,Coucy-lès-Eppes,02,32.0,2024,4,4.0,0.0,0.0,100.0,107737,923,108,649.0,49.556,3.7811
02219,Coucy-la-Ville,02,32.0,2024,1,0.0,1.0,100.0,0.0,40000,625,64,194.0,49.5414,3.3413
02220,Coulonges-Cohan,02,32.0,2024,4,4.0,0.0,0.0,100.0,128307,894,137,443.0,49.1958,3.6238
02221,Coupru,02,32.0,2024,4,4.0,0.0,0.0,100.0,167750,1762,100,161.0,49.0304,3.2749
02222,Courbes,02,32.0,2024,2,2.0,0.0,0.0,100.0,103950,846,114,39.0,49.6804,3.4567
02224,Courcelles-sur-Vesle,02,32.0,2024,3,3.0,0.0,0.0,100.0,175183,1744,97,352.0,49.3464,3.576
02225,Courchamps,02,32.0,2024,2,2.0,0.0,0.0,100.0,138000,1309,116,82.0,49.1152,3.261
02226,Courmelles,02,32.0,2024,11,10.0,1.0,9.0,91.0,182000,1662,105,1808.0,49.3456,3.2994
02228,Courtemont-Varennes,02,32.0,2024,5,5.0,0.0,0.0,100.0,125250,1309,100,361.0,49.0719,3.5414
02229,Courtrizy-et-Fussigny,02,32.0,2024,1,1.0,0.0,0.0,100.0,150000,1339,112,78.0,49.5152,3.7953
02230,Couvrelles,02,32.0,2024,1,1.0,0.0,0.0,100.0,218000,1371,159,174.0,49.3328,3.485
02231,Couvron-et-Aumencourt,02,32.0,2024,8,8.0,0.0,0.0,100.0,146802,1336,122,926.0,49.6464,3.515
02232,Coyolles,02,32.0,2024,1,1.0,0.0,0.0,100.0,192000,1920,100,366.0,49.216,3.021
02234,Craonne,02,32.0,2024,1,1.0,0.0,0.0,100.0,105000,2386,44,84.0,49.4491,3.7947
02235,Craonnelle,02,32.0,2024,3,3.0,0.0,0.0,100.0,139400,1278,105,119.0,49.4251,3.7755
02237,Crécy-sur-Serre,02,32.0,2024,11,11.0,0.0,0.0,100.0,93173,895,104,1472.0,49.693,3.6188
02238,Crépy,02,32.0,2024,16,16.0,0.0,0.0,100.0,123841,1452,88,1812.0,49.6089,3.5088
02239,Crézancy,02,32.0,2024,8,8.0,0.0,0.0,100.0,162914,1536,104,1166.0,49.0405,3.5169
02240,Croix-Fonsomme,02,32.0,2024,1,1.0,0.0,0.0,100.0,128000,877,146,183.0,49.9329,3.3937
02242,Crouttes-sur-Marne,02,32.0,2024,9,9.0,0.0,0.0,100.0,132611,1427,96,591.0,48.9775,3.247
02243,Crouy,02,32.0,2024,34,32.0,2.0,6.0,94.0,132012,1805,78,3049.0,49.4073,3.3684
02245,Cuffies,02,32.0,2024,17,16.0,1.0,6.0,94.0,153197,1784,87,1733.0,49.4086,3.3197
02246,Cugny,02,32.0,2024,4,4.0,0.0,0.0,100.0,153500,1258,138,607.0,49.7097,3.1518
02248,Cuirieux,02,32.0,2024,1,1.0,0.0,0.0,100.0,70000,680,103,152.0,49.6835,3.8206
02249,Cuiry-Housse,02,32.0,2024,2,2.0,0.0,0.0,100.0,150750,1002,155,102.0,49.2886,3.4903
02251,Cuiry-lès-Iviers,02,32.0,2024,2,2.0,0.0,0.0,100.0,91214,677,122,28.0,49.7661,4.1045
02253,Cuisy-en-Almont,02,32.0,2024,4,4.0,0.0,0.0,100.0,147712,1386,124,361.0,49.422,3.2452
02254,Cutry,02,32.0,2024,5,5.0,0.0,0.0,100.0,186880,1430,138,126.0,49.345,3.1907
02256,Dagny-Lambercy,02,32.0,2024,2,2.0,0.0,0.0,100.0,90925,589,146,123.0,49.7685,4.0437
02257,Dallon,02,32.0,2024,3,3.0,0.0,0.0,100.0,197667,1623,121,424.0,49.8249,3.2327
02258,Dammard,02,32.0,2024,3,3.0,0.0,0.0,100.0,166133,1890,86,378.0,49.146,3.1723
02259,Dampleux,02,32.0,2024,5,5.0,0.0,0.0,100.0,151800,1634,90,370.0,49.2408,3.1471
02260,Danizy,02,32.0,2024,11,11.0,0.0,0.0,100.0,89380,1173,78,609.0,49.6658,3.4037
02261,Dercy,02,32.0,2024,7,7.0,0.0,0.0,100.0,102293,1188,98,392.0,49.7127,3.6847
02262,Deuillet,02,32.0,2024,2,2.0,0.0,0.0,100.0,169500,1569,108,208.0,49.6271,3.3571
02263,Dhuizel,02,32.0,2024,1,1.0,0.0,0.0,100.0,78000,578,135,114.0,49.3591,3.6148
02264,Dizy-le-Gros,02,32.0,2024,10,10.0,0.0,0.0,100.0,92500,1123,86,717.0,49.6351,4.0171
02265,Dohis,02,32.0,2024,2,2.0,0.0,0.0,100.0,70000,830,85,84.0,49.766,4.1421
02266,Dolignon,02,32.0,2024,1,1.0,0.0,0.0,100.0,65000,1000,65,30.0,49.7295,4.0873
02267,Dommiers,02,32.0,2024,3,3.0,0.0,0.0,100.0,303373,3546,101,287.0,49.3314,3.2165
02268,Domptin,02,32.0,2024,5,5.0,0.0,0.0,100.0,120934,1852,79,654.0,49.0151,3.2705
02269,Dorengt,02,32.0,2024,1,1.0,0.0,0.0,100.0,60000,571,105,148.0,49.9656,3.7014
02270,Douchy,02,32.0,2024,2,2.0,0.0,0.0,100.0,39500,522,74,153.0,49.7959,3.1296
02271,Dravegny,02,32.0,2024,3,3.0,0.0,0.0,100.0,174733,1811,96,134.0,49.2425,3.6395
02272,Droizy,02,32.0,2024,2,2.0,0.0,0.0,100.0,92210,942,97,75.0,49.2746,3.3864
02275,Effry,02,32.0,2024,2,2.0,0.0,0.0,100.0,37500,460,86,307.0,49.9191,3.9879
02276,Englancourt,02,32.0,2024,4,4.0,0.0,0.0,100.0,162375,1151,136,122.0,49.9251,3.8081
02277,Épagny,02,32.0,2024,3,3.0,0.0,0.0,100.0,133333,1367,94,337.0,49.4729,3.2565
02279,Épaux-Bézu,02,32.0,2024,9,9.0,0.0,0.0,100.0,354192,2721,110,534.0,49.1022,3.3563
02280,Épieds,02,32.0,2024,4,4.0,0.0,0.0,100.0,253125,1734,153,395.0,49.1023,3.4579
02281,L'Épine-aux-Bois,02,32.0,2024,3,3.0,0.0,0.0,100.0,170100,1698,101,241.0,48.8988,3.4452
02282,Eppes,02,32.0,2024,1,1.0,0.0,0.0,100.0,165000,1941,85,438.0,49.5509,3.7397
02283,Erlon,02,32.0,2024,4,4.0,0.0,0.0,100.0,85975,859,101,278.0,49.733,3.7073
02284,Erloy,02,32.0,2024,1,1.0,0.0,0.0,100.0,50000,500,100,98.0,49.9204,3.8394
02286,Esquéhéries,02,32.0,2024,4,4.0,0.0,0.0,100.0,89375,977,90,847.0,49.9779,3.7584
02287,Essigny-le-Grand,02,32.0,2024,19,19.0,0.0,0.0,100.0,157671,1592,100,1072.0,49.7742,3.2732
02288,Essigny-le-Petit,02,32.0,2024,7,7.0,0.0,0.0,100.0,124743,1241,99,345.0,49.8985,3.3686
02289,Essises,02,32.0,2024,3,3.0,0.0,0.0,100.0,124333,1419,88,399.0,48.9674,3.4162
02290,Essômes-sur-Marne,02,32.0,2024,26,24.0,2.0,8.0,92.0,187800,1926,103,2691.0,49.033,3.3427
02291,Estrées,02,32.0,2024,2,2.0,0.0,0.0,100.0,84950,883,105,408.0,49.9686,3.2802
02292,Étampes-sur-Marne,02,32.0,2024,10,10.0,0.0,0.0,100.0,170300,2218,79,1329.0,49.0319,3.4175
02293,Étaves-et-Bocquiaux,02,32.0,2024,2,2.0,0.0,0.0,100.0,69200,926,74,543.0,49.931,3.4519
02295,Étréaupont,02,32.0,2024,6,6.0,0.0,0.0,100.0,89692,794,112,839.0,49.9014,3.9399
02296,Étreillers,02,32.0,2024,14,14.0,0.0,0.0,100.0,125779,1325,99,1157.0,49.8309,3.1565
02297,Étrépilly,02,32.0,2024,1,1.0,0.0,0.0,100.0,50000,877,57,125.0,49.0825,3.3515
02298,Étreux,02,32.0,2024,10,10.0,0.0,0.0,100.0,76646,920,82,1436.0,49.9985,3.6554
02299,Évergnicourt,02,32.0,2024,7,7.0,0.0,0.0,100.0,86529,1191,72,522.0,49.4573,4.039
02302,Faverolles,02,32.0,2024,3,3.0,0.0,0.0,100.0,180333,1764,104,363.0,49.2255,3.1827
02303,Fayet,02,32.0,2024,8,8.0,0.0,0.0,100.0,194756,1601,122,724.0,49.871,3.2533
02304,La Fère,02,32.0,2024,21,16.0,5.0,24.0,76.0,82986,835,105,2796.0,49.6683,3.3694
02305,Fère-en-Tardenois,02,32.0,2024,33,31.0,2.0,6.0,94.0,103072,1191,87,2836.0,49.1833,3.5126
02306,La Ferté-Chevresis,02,32.0,2024,9,9.0,0.0,0.0,100.0,110950,1055,106,526.0,49.7455,3.5506
02307,La Ferté-Milon,02,32.0,2024,30,26.0,4.0,13.0,87.0,171930,1955,91,2027.0,49.1729,3.1441
02308,Fesmy-le-Sart,02,32.0,2024,7,7.0,0.0,0.0,100.0,130379,1208,112,519.0,50.0477,3.6972
02309,Festieux,02,32.0,2024,9,9.0,0.0,0.0,100.0,123183,1216,104,704.0,49.5255,3.7609
02310,Fieulaine,02,32.0,2024,1,1.0,0.0,0.0,100.0,95000,1218,78,249.0,49.8974,3.445
02312,La Flamengrie,02,32.0,2024,12,12.0,0.0,0.0,100.0,173522,1142,135,1103.0,50.0021,3.9205
02313,Flavigny-le-Grand-et-Beaurain,02,32.0,2024,1,1.0,0.0,0.0,100.0,140000,959,146,420.0,49.8868,3.6741
02315,Flavy-le-Martel,02,32.0,2024,16,16.0,0.0,0.0,100.0,122738,1306,97,1701.0,49.7086,3.1921
02317,Fluquières,02,32.0,2024,2,2.0,0.0,0.0,100.0,203200,1646,122,194.0,49.7995,3.1569
02318,Folembray,02,32.0,2024,13,13.0,0.0,0.0,100.0,102408,1276,82,1355.0,49.55,3.2896
02319,Fonsomme,02,32.0,2024,5,5.0,0.0,0.0,100.0,85000,719,114,518.0,49.8998,3.3961
02321,Fontaine-lès-Vervins,02,32.0,2024,4,4.0,0.0,0.0,100.0,121500,1126,111,862.0,49.8512,3.9084
02322,Fontaine-Notre-Dame,02,32.0,2024,3,3.0,0.0,0.0,100.0,140300,1108,120,378.0,49.881,3.424
02324,Fontenelle,02,32.0,2024,1,1.0,0.0,0.0,100.0,200000,1869,107,280.0,50.0299,3.8489
02326,Fontenoy,02,32.0,2024,7,7.0,0.0,0.0,100.0,149897,1466,105,483.0,49.4108,3.1936
02327,Foreste,02,32.0,2024,6,6.0,0.0,0.0,100.0,105028,1266,82,166.0,49.8056,3.0952
02328,Fossoy,02,32.0,2024,3,3.0,0.0,0.0,100.0,174667,1601,105,535.0,49.0426,3.4821
02329,Fourdrain,02,32.0,2024,6,6.0,0.0,0.0,100.0,92325,1081,81,404.0,49.617,3.4569
02330,Francilly-Selency,02,32.0,2024,4,4.0,0.0,0.0,100.0,196838,1750,114,463.0,49.8558,3.2296
02332,Fresnes-en-Tardenois,02,32.0,2024,5,5.0,0.0,0.0,100.0,112220,1139,97,272.0,49.1448,3.5511
02333,Fresnes-sous-Coucy,02,32.0,2024,2,2.0,0.0,0.0,100.0,89850,1149,82,160.0,49.5523,3.3678
02334,Fresnoy-le-Grand,02,32.0,2024,29,29.0,0.0,0.0,100.0,91682,1051,89,2890.0,49.9553,3.417
02336,Frières-Faillouël,02,32.0,2024,11,11.0,0.0,0.0,100.0,162164,1728,95,971.0,49.6841,3.2366
02337,Froidestrées,02,32.0,2024,1,1.0,0.0,0.0,100.0,50000,500,100,198.0,49.9432,3.9097
02338,Froidmont-Cohartille,02,32.0,2024,3,3.0,0.0,0.0,100.0,146133,947,161,236.0,49.6793,3.72
02339,Gandelu,02,32.0,2024,7,7.0,0.0,0.0,100.0,147307,1430,101,683.0,49.0796,3.1782
02340,Gauchy,02,32.0,2024,52,48.0,4.0,8.0,92.0,113220,1342,84,5183.0,49.8233,3.2846
02341,Gercy,02,32.0,2024,2,2.0,0.0,0.0,100.0,112500,1042,120,258.0,49.8145,3.8726
02342,Gergny,02,32.0,2024,1,1.0,0.0,0.0,100.0,200000,862,232,127.0,49.9339,3.93
02343,Germaine,02,32.0,2024,1,1.0,0.0,0.0,100.0,455000,1928,236,84.0,49.8135,3.1207
02346,Gizy,02,32.0,2024,7,7.0,0.0,0.0,100.0,121004,1341,92,630.0,49.6118,3.7661
02347,Gland,02,32.0,2024,3,3.0,0.0,0.0,100.0,163667,1276,139,425.0,49.059,3.4602
02349,Goudelancourt-lès-Berrieux,02,32.0,2024,2,2.0,0.0,0.0,100.0,211500,1298,184,65.0,49.4923,3.8568
02350,Goudelancourt-lès-Pierrepont,02,32.0,2024,1,1.0,0.0,0.0,100.0,186400,1664,112,140.0,49.6798,3.8529
02351,Goussancourt,02,32.0,2024,2,2.0,0.0,0.0,100.0,103000,1334,78,120.0,49.1636,3.6541
02352,Gouy,02,32.0,2024,7,7.0,0.0,0.0,100.0,84429,935,88,572.0,49.9938,3.2618
02353,Grandlup-et-Fay,02,32.0,2024,1,1.0,0.0,0.0,100.0,107700,1171,92,275.0,49.6538,3.7378
02354,Grandrieux,02,32.0,2024,1,1.0,0.0,0.0,100.0,170000,1030,165,80.0,49.7312,4.1862
02355,Gricourt,02,32.0,2024,3,3.0,0.0,0.0,100.0,100000,1234,81,1011.0,49.8876,3.2394
02356,Grisolles,02,32.0,2024,2,2.0,0.0,0.0,100.0,71500,713,104,227.0,49.1298,3.3718
02358,Grougis,02,32.0,2024,4,4.0,0.0,0.0,100.0,91375,784,102,304.0,49.9501,3.5281
02359,Grugies,02,32.0,2024,14,11.0,3.0,21.0,79.0,132564,1580,82,1280.0,49.8106,3.2787
02360,Villeneuve-sur-Aisne,02,32.0,2024,31,31.0,0.0,0.0,100.0,164246,1781,94,2792.0,49.4409,3.9744
02361,Guise,02,32.0,2024,42,39.0,3.0,7.0,93.0,72649,853,85,4490.0,49.8973,3.6229
02363,Guny,02,32.0,2024,3,3.0,0.0,0.0,100.0,137833,1772,79,357.0,49.5117,3.2641
02366,Hannapes,02,32.0,2024,6,6.0,0.0,0.0,100.0,91750,1072,103,320.0,49.9762,3.6163
02367,Happencourt,02,32.0,2024,2,2.0,0.0,0.0,100.0,101750,1405,72,179.0,49.7814,3.1838
02368,Haramont,02,32.0,2024,3,3.0,0.0,0.0,100.0,371000,3147,117,556.0,49.2862,3.0219
02369,Harcigny,02,32.0,2024,2,2.0,0.0,0.0,100.0,42500,534,80,244.0,49.8081,3.9767
02370,Hargicourt,02,32.0,2024,3,3.0,0.0,0.0,100.0,186000,1276,145,545.0,49.967,3.1884
02371,Harly,02,32.0,2024,19,19.0,0.0,0.0,100.0,137529,1438,98,1569.0,49.8404,3.3347
02372,Hartennes-et-Taux,02,32.0,2024,7,7.0,0.0,0.0,100.0,168700,1594,110,343.0,49.2795,3.3588
02373,Hary,02,32.0,2024,1,1.0,0.0,0.0,100.0,100000,1333,75,203.0,49.798,3.9154
02374,Lehaucourt,02,32.0,2024,9,7.0,2.0,22.0,78.0,75578,931,82,822.0,49.9122,3.2777
02375,Hautevesnes,02,32.0,2024,1,1.0,0.0,0.0,100.0,390000,2321,168,165.0,49.114,3.2317
02376,Hauteville,02,32.0,2024,1,1.0,0.0,0.0,100.0,135000,1378,98,189.0,49.888,3.525
02377,Haution,02,32.0,2024,2,2.0,0.0,0.0,100.0,112500,662,152,131.0,49.8709,3.8352
02378,La Hérie,02,32.0,2024,3,3.0,0.0,0.0,100.0,65333,624,114,125.0,49.8828,4.0414
02379,Le Hérie-la-Viéville,02,32.0,2024,3,3.0,0.0,0.0,100.0,71667,921,77,192.0,49.8214,3.6544
02381,Hirson,02,32.0,2024,99,91.0,8.0,8.0,92.0,65601,832,86,8469.0,49.938,4.1132
02382,Holnon,02,32.0,2024,9,9.0,0.0,0.0,100.0,188054,1496,126,1343.0,49.861,3.2007
02383,Homblières,02,32.0,2024,21,17.0,4.0,19.0,81.0,152324,1332,114,1412.0,49.8569,3.3709
02386,Iron,02,32.0,2024,2,2.0,0.0,0.0,100.0,45500,464,98,224.0,49.9517,3.6656
02387,Itancourt,02,32.0,2024,3,3.0,0.0,0.0,100.0,160300,1432,106,999.0,49.803,3.3501
02388,Iviers,02,32.0,2024,4,4.0,0.0,0.0,100.0,90800,753,117,218.0,49.7881,4.1392
02389,Jaulgonne,02,32.0,2024,8,7.0,1.0,12.0,88.0,134625,1546,87,672.0,49.0884,3.5315
02390,Jeancourt,02,32.0,2024,4,4.0,0.0,0.0,100.0,107000,1112,97,251.0,49.9308,3.1459
02391,Jeantes,02,32.0,2024,2,2.0,0.0,0.0,100.0,166500,1522,112,229.0,49.8142,4.071
02392,Joncourt,02,32.0,2024,3,3.0,0.0,0.0,100.0,119333,857,144,328.0,49.9604,3.3043
02395,Jumencourt,02,32.0,2024,2,2.0,0.0,0.0,100.0,202300,1562,134,120.0,49.5151,3.3484
02397,Jussy,02,32.0,2024,17,17.0,0.0,0.0,100.0,114551,1126,108,1153.0,49.7168,3.2357
02398,Juvigny,02,32.0,2024,1,1.0,0.0,0.0,100.0,177650,1974,90,288.0,49.4488,3.3178
02399,Juvincourt-et-Damary,02,32.0,2024,9,9.0,0.0,0.0,100.0,161383,1308,125,604.0,49.4504,3.8904
02403,Landifay-et-Bertaignemont,02,32.0,2024,6,5.0,1.0,17.0,83.0,95417,958,98,241.0,49.8293,3.604
02404,Landouzy-la-Cour,02,32.0,2024,1,1.0,0.0,0.0,100.0,20000,370,54,167.0,49.8445,3.9934
02405,Landouzy-la-Ville,02,32.0,2024,4,4.0,0.0,0.0,100.0,130625,1188,101,503.0,49.8578,4.0489
02406,Landricourt,02,32.0,2024,3,3.0,0.0,0.0,100.0,217000,1589,138,126.0,49.5104,3.3717
02407,Laniscourt,02,32.0,2024,4,4.0,0.0,0.0,100.0,195650,1835,111,216.0,49.5461,3.5336
02408,Laon,02,32.0,2024,234,151.0,83.0,35.0,65.0,94454,1238,78,24220.0,49.5711,3.613
02409,Lappion,02,32.0,2024,3,3.0,0.0,0.0,100.0,104333,1201,86,283.0,49.5929,3.9689
02412,Launoy,02,32.0,2024,1,1.0,0.0,0.0,100.0,108500,1550,70,96.0,49.2632,3.4034
02413,Laval-en-Laonnois,02,32.0,2024,1,1.0,0.0,0.0,100.0,263000,1206,218,251.0,49.503,3.5862
02414,Lavaqueresse,02,32.0,2024,4,4.0,0.0,0.0,100.0,156875,1150,150,203.0,49.9453,3.7163
02415,Laversine,02,32.0,2024,1,1.0,0.0,0.0,100.0,140000,2857,49,155.0,49.3541,3.1475
02416,Lemé,02,32.0,2024,6,6.0,0.0,0.0,100.0,82675,997,91,409.0,49.8422,3.758
02417,Lempire,02,32.0,2024,2,2.0,0.0,0.0,100.0,132500,1353,128,125.0,49.9976,3.1753
02418,Lerzy,02,32.0,2024,5,5.0,0.0,0.0,100.0,123040,1397,89,223.0,49.9504,3.8831
02419,Leschelle,02,32.0,2024,1,1.0,0.0,0.0,100.0,34000,447,76,269.0,49.963,3.7739
02420,Lesdins,02,32.0,2024,4,4.0,0.0,0.0,100.0,127950,1467,90,790.0,49.9036,3.3122
02421,Lesges,02,32.0,2024,2,2.0,0.0,0.0,100.0,94000,1040,93,83.0,49.308,3.4982
02422,Lesquielles-Saint-Germain,02,32.0,2024,15,15.0,0.0,0.0,100.0,89693,976,102,754.0,49.9312,3.6277
02423,Leuilly-sous-Coucy,02,32.0,2024,5,5.0,0.0,0.0,100.0,170410,1656,104,455.0,49.4755,3.3501
02424,Leury,02,32.0,2024,1,1.0,0.0,0.0,100.0,220000,791,278,101.0,49.4246,3.3415
02425,Leuze,02,32.0,2024,1,1.0,0.0,0.0,100.0,145000,1074,135,190.0,49.8586,4.1675
02426,Levergies,02,32.0,2024,6,6.0,0.0,0.0,100.0,112050,1327,86,543.0,49.9342,3.3122
02427,Lhuys,02,32.0,2024,6,6.0,0.0,0.0,100.0,117462,1300,93,140.0,49.2734,3.5431
02429,Lierval,02,32.0,2024,1,1.0,0.0,0.0,100.0,289000,2779,104,117.0,49.488,3.6218
02430,Liesse-Notre-Dame,02,32.0,2024,13,13.0,0.0,0.0,100.0,84300,1059,80,1264.0,49.6115,3.8271
02431,Liez,02,32.0,2024,5,5.0,0.0,0.0,100.0,98580,1231,78,385.0,49.6933,3.3002
02432,Limé,02,32.0,2024,1,1.0,0.0,0.0,100.0,175000,2465,71,192.0,49.3249,3.5559
02433,Lislet,02,32.0,2024,1,1.0,0.0,0.0,100.0,100874,1215,83,220.0,49.6763,4.0198
02438,Longpont,02,32.0,2024,1,1.0,0.0,0.0,100.0,124900,1436,87,249.0,49.2857,3.2202
02439,Les Septvallons,02,32.0,2024,17,17.0,0.0,0.0,100.0,177768,1512,124,1232.0,49.3555,3.6776
02440,Lor,02,32.0,2024,2,2.0,0.0,0.0,100.0,88900,990,92,141.0,49.5308,4.0544
02443,Lucy-le-Bocage,02,32.0,2024,4,4.0,0.0,0.0,100.0,185750,1490,132,202.0,49.0556,3.2755
02444,Lugny,02,32.0,2024,1,1.0,0.0,0.0,100.0,50000,806,62,110.0,49.7802,3.8114
02445,Luzoir,02,32.0,2024,2,2.0,0.0,0.0,100.0,80000,876,88,266.0,49.9315,3.9597
02446,Ly-Fontaine,02,32.0,2024,1,1.0,0.0,0.0,100.0,128000,1320,97,118.0,49.7329,3.311
02447,Maast-et-Violaine,02,32.0,2024,3,3.0,0.0,0.0,100.0,184333,1515,109,126.0,49.2935,3.4535
02450,Macquigny,02,32.0,2024,4,4.0,0.0,0.0,100.0,51000,643,82,357.0,49.8714,3.569
02451,Magny-la-Fosse,02,32.0,2024,2,2.0,0.0,0.0,100.0,132600,1142,118,122.0,49.9371,3.274
02452,Maissemy,02,32.0,2024,1,1.0,0.0,0.0,100.0,185000,1156,160,232.0,49.8924,3.1857
02453,Maizy,02,32.0,2024,8,8.0,0.0,0.0,100.0,123903,1577,84,392.0,49.3754,3.7134
02454,La Malmaison,02,32.0,2024,1,1.0,0.0,0.0,100.0,175000,946,185,403.0,49.5168,3.9951
02455,Malzy,02,32.0,2024,1,1.0,0.0,0.0,100.0,50000,769,65,178.0,49.921,3.7317
02456,Manicamp,02,32.0,2024,2,2.0,0.0,0.0,100.0,132500,2310,62,311.0,49.5653,3.1805
02457,Marchais,02,32.0,2024,4,4.0,0.0,0.0,100.0,123500,1249,97,389.0,49.5867,3.819
02458,Dhuys et Morin-en-Brie,02,32.0,2024,5,5.0,0.0,0.0,100.0,177620,1729,103,821.0,48.8917,3.5092
02459,Marcy,02,32.0,2024,2,2.0,0.0,0.0,100.0,140550,1112,126,151.0,49.8518,3.4159
02461,Marest-Dampcourt,02,32.0,2024,3,3.0,0.0,0.0,100.0,161333,1638,105,341.0,49.5942,3.1488
02462,Mareuil-en-Dôle,02,32.0,2024,6,6.0,0.0,0.0,100.0,113167,1409,84,221.0,49.2446,3.5627
02463,Marfontaine,02,32.0,2024,4,4.0,0.0,0.0,100.0,128000,1242,124,83.0,49.8085,3.7641
02464,Margival,02,32.0,2024,5,5.0,0.0,0.0,100.0,163890,1596,99,377.0,49.4322,3.4072
02465,Marigny-en-Orxois,02,32.0,2024,7,7.0,0.0,0.0,100.0,216579,2085,104,530.0,49.0551,3.2195
02466,Marizy-Sainte-Geneviève,02,32.0,2024,2,2.0,0.0,0.0,100.0,145750,1650,96,125.0,49.181,3.1971
02468,Marle,02,32.0,2024,24,22.0,2.0,8.0,92.0,86633,1195,89,2229.0,49.7444,3.7654
02469,Marly-Gomont,02,32.0,2024,4,4.0,0.0,0.0,100.0,65000,672,94,483.0,49.8894,3.7856
02470,Martigny,02,32.0,2024,2,2.0,0.0,0.0,100.0,235242,1286,158,410.0,49.8672,4.1357
02471,Martigny-Courpierre,02,32.0,2024,1,1.0,0.0,0.0,100.0,260000,2680,97,130.0,49.4919,3.6872
02472,Mauregny-en-Haye,02,32.0,2024,6,6.0,0.0,0.0,100.0,144950,1647,102,398.0,49.5437,3.7968
02473,Mayot,02,32.0,2024,3,3.0,0.0,0.0,100.0,119167,1014,118,207.0,49.7093,3.3962
02474,Mennessis,02,32.0,2024,6,6.0,0.0,0.0,100.0,90167,999,88,419.0,49.6915,3.2726
02476,Mennevret,02,32.0,2024,6,6.0,0.0,0.0,100.0,73417,636,107,637.0,49.9925,3.5568
02477,Mercin-et-Vaux,02,32.0,2024,6,5.0,1.0,17.0,83.0,156133,1800,87,935.0,49.3675,3.2693
02480,Mesbrecourt-Richecourt,02,32.0,2024,1,1.0,0.0,0.0,100.0,89500,752,119,320.0,49.7132,3.5367
02481,Mesnil-Saint-Laurent,02,32.0,2024,2,2.0,0.0,0.0,100.0,443000,1892,226,435.0,49.8312,3.3657
02483,Mézières-sur-Oise,02,32.0,2024,9,9.0,0.0,0.0,100.0,112689,1209,91,507.0,49.7903,3.3864
02484,Mézy-Moulins,02,32.0,2024,8,8.0,0.0,0.0,100.0,174300,1811,105,558.0,49.0634,3.5125
02485,Missy-aux-Bois,02,32.0,2024,1,1.0,0.0,0.0,100.0,212500,2125,100,100.0,49.3353,3.2491
02486,Missy-lès-Pierrepont,02,32.0,2024,1,1.0,0.0,0.0,100.0,90000,857,105,107.0,49.6291,3.7862
02487,Missy-sur-Aisne,02,32.0,2024,3,3.0,0.0,0.0,100.0,183167,2297,89,625.0,49.3849,3.4399
02488,Molain,02,32.0,2024,2,2.0,0.0,0.0,100.0,90000,1092,76,161.0,50.032,3.53
02489,Molinchart,02,32.0,2024,5,5.0,0.0,0.0,100.0,140840,1291,108,359.0,49.5614,3.5407
02490,Monampteuil,02,32.0,2024,1,1.0,0.0,0.0,100.0,95000,1218,78,122.0,49.4715,3.5731
02491,Monceau-le-Neuf-et-Faucouzy,02,32.0,2024,4,4.0,0.0,0.0,100.0,163425,920,144,320.0,49.7826,3.6311
02492,Monceau-lès-Leups,02,32.0,2024,3,3.0,0.0,0.0,100.0,115333,1077,139,426.0,49.6621,3.4813
02493,Monceau-le-Waast,02,32.0,2024,5,5.0,0.0,0.0,100.0,71600,1004,70,211.0,49.6228,3.7182
02494,Monceau-sur-Oise,02,32.0,2024,2,2.0,0.0,0.0,100.0,70000,996,70,132.0,49.9099,3.6979
02495,Mondrepuis,02,32.0,2024,10,10.0,0.0,0.0,100.0,120080,1130,106,1028.0,49.9629,4.0587
02496,Monnes,02,32.0,2024,1,1.0,0.0,0.0,100.0,125000,1087,115,90.0,49.1473,3.2282
02497,Mons-en-Laonnois,02,32.0,2024,9,9.0,0.0,0.0,100.0,154333,1611,101,1146.0,49.5372,3.5531
02498,Montaigu,02,32.0,2024,7,7.0,0.0,0.0,100.0,141571,1163,120,766.0,49.555,3.8447
02499,Montbavin,02,32.0,2024,1,1.0,0.0,0.0,100.0,238000,1587,150,39.0,49.5301,3.5135
02500,Montbrehain,02,32.0,2024,12,12.0,0.0,0.0,100.0,88200,991,85,816.0,49.9636,3.3564
02502,Montcornet,02,32.0,2024,15,15.0,0.0,0.0,100.0,91926,1009,93,1207.0,49.6897,4.0262
02503,Mont-d'Origny,02,32.0,2024,12,12.0,0.0,0.0,100.0,96771,919,109,839.0,49.8531,3.5261
02504,Montescourt-Lizerolles,02,32.0,2024,17,17.0,0.0,0.0,100.0,144546,1364,107,1606.0,49.7362,3.2581
02506,Montgobert,02,32.0,2024,3,3.0,0.0,0.0,100.0,294542,2077,136,200.0,49.2892,3.1764
02507,Montgru-Saint-Hilaire,02,32.0,2024,1,1.0,0.0,0.0,100.0,120000,597,201,30.0,49.177,3.326
02508,Monthenault,02,32.0,2024,2,2.0,0.0,0.0,100.0,115000,1337,86,140.0,49.49,3.6555
02511,Montigny-en-Arrouaise,02,32.0,2024,3,3.0,0.0,0.0,100.0,109120,1094,100,317.0,49.914,3.4858
02512,Montigny-l'Allier,02,32.0,2024,3,3.0,0.0,0.0,100.0,173333,1448,119,273.0,49.1245,3.1053
02514,Montigny-Lengrain,02,32.0,2024,3,3.0,0.0,0.0,100.0,150833,1861,81,674.0,49.3741,3.0975
02516,Montigny-sous-Marle,02,32.0,2024,1,1.0,0.0,0.0,100.0,44000,373,118,71.0,49.74,3.8051
02517,Montigny-sur-Crécy,02,32.0,2024,4,4.0,0.0,0.0,100.0,89962,1032,89,306.0,49.7126,3.5839
02519,Montloué,02,32.0,2024,1,1.0,0.0,0.0,100.0,122000,1419,86,193.0,49.6644,4.0652
02520,Mont-Notre-Dame,02,32.0,2024,11,11.0,0.0,0.0,100.0,141427,1506,92,751.0,49.2933,3.5806
02521,Montreuil-aux-Lions,02,32.0,2024,23,22.0,1.0,4.0,96.0,175109,1943,94,1305.0,49.0258,3.1973
02523,Mont-Saint-Martin,02,32.0,2024,1,1.0,0.0,0.0,100.0,435000,1279,340,70.0,49.2754,3.6409
02524,Mont-Saint-Père,02,32.0,2024,5,5.0,0.0,0.0,100.0,171100,1658,104,684.0,49.0809,3.4776
02525,Morcourt,02,32.0,2024,1,1.0,0.0,0.0,100.0,78000,1300,60,544.0,49.8783,3.3378
02526,Morgny-en-Thiérache,02,32.0,2024,2,2.0,0.0,0.0,100.0,51875,514,98,98.0,49.7557,4.0784
02527,Morsain,02,32.0,2024,1,1.0,0.0,0.0,100.0,120000,1000,120,469.0,49.462,3.1896
02528,Mortefontaine,02,32.0,2024,1,1.0,0.0,0.0,100.0,184320,2491,74,208.0,49.3366,3.08
02529,Mortiers,02,32.0,2024,2,2.0,0.0,0.0,100.0,110900,1111,92,185.0,49.6966,3.6658
02530,Moulins,02,32.0,2024,1,1.0,0.0,0.0,100.0,25000,610,41,74.0,49.4209,3.6789
02531,Moussy-Verneuil,02,32.0,2024,2,2.0,0.0,0.0,100.0,161300,1142,162,141.0,49.4145,3.6403
02532,Moÿ-de-l'Aisne,02,32.0,2024,9,9.0,0.0,0.0,100.0,114433,1045,111,994.0,49.7504,3.3512
02533,Muret-et-Crouttes,02,32.0,2024,3,3.0,0.0,0.0,100.0,129200,1104,113,117.0,49.2789,3.4382
02535,Nampcelles-la-Cour,02,32.0,2024,1,1.0,0.0,0.0,100.0,119700,921,130,115.0,49.7775,3.9999
02536,Nampteuil-sous-Muret,02,32.0,2024,1,1.0,0.0,0.0,100.0,258000,2580,100,88.0,49.305,3.4344
02537,Nanteuil-la-Fosse,02,32.0,2024,1,1.0,0.0,0.0,100.0,80000,909,88,186.0,49.4344,3.4456
02538,Nanteuil-Notre-Dame,02,32.0,2024,2,2.0,0.0,0.0,100.0,182500,1894,86,86.0,49.1912,3.4105
02539,Nauroy,02,32.0,2024,6,6.0,0.0,0.0,100.0,118450,1352,83,659.0,49.9514,3.2589
02540,Nesles-la-Montagne,02,32.0,2024,7,7.0,0.0,0.0,100.0,158857,1574,113,1189.0,49.0008,3.4486
02541,Neufchâtel-sur-Aisne,02,32.0,2024,5,5.0,0.0,0.0,100.0,163860,1533,104,424.0,49.4382,4.0242
02542,Neuflieux,02,32.0,2024,3,3.0,0.0,0.0,100.0,105333,1577,67,80.0,49.6173,3.1596
02543,Neuilly-Saint-Front,02,32.0,2024,22,22.0,0.0,0.0,100.0,132166,1452,93,1943.0,49.165,3.2666
02544,Neuve-Maison,02,32.0,2024,6,6.0,0.0,0.0,100.0,102533,891,120,602.0,49.9281,4.0394
02545,La Neuville-Bosmont,02,32.0,2024,1,1.0,0.0,0.0,100.0,57500,479,120,187.0,49.7152,3.8346
02548,La Neuville-lès-Dorengt,02,32.0,2024,4,4.0,0.0,0.0,100.0,128500,1264,119,394.0,49.9832,3.6851
02549,Neuville-Saint-Amand,02,32.0,2024,14,14.0,0.0,0.0,100.0,141936,1671,85,848.0,49.8201,3.3395
02550,Neuville-sur-Ailette,02,32.0,2024,1,1.0,0.0,0.0,100.0,241000,2975,81,121.0,49.4705,3.6986
02551,Neuville-sur-Margival,02,32.0,2024,1,1.0,0.0,0.0,100.0,75000,1250,60,116.0,49.4542,3.3985
02552,Neuvillette,02,32.0,2024,2,2.0,0.0,0.0,100.0,212250,1189,186,170.0,49.8553,3.4695
02553,Nizy-le-Comte,02,32.0,2024,2,2.0,0.0,0.0,100.0,78250,976,86,225.0,49.5733,4.0348
02554,Nogentel,02,32.0,2024,11,9.0,2.0,18.0,82.0,191746,2049,99,1106.0,49.0152,3.4042
02555,Nogent-l'Artaud,02,32.0,2024,31,26.0,5.0,16.0,84.0,174487,1921,91,2134.0,48.9425,3.3313
02556,Noircourt,02,32.0,2024,1,1.0,0.0,0.0,100.0,35000,438,80,68.0,49.6691,4.0948
02557,Noroy-sur-Ourcq,02,32.0,2024,1,1.0,0.0,0.0,100.0,312000,1248,250,124.0,49.2031,3.207
02558,Le Nouvion-en-Thiérache,02,32.0,2024,29,29.0,0.0,0.0,100.0,103317,1170,92,2468.0,50.0097,3.808
02559,Nouvion-et-Catillon,02,32.0,2024,5,5.0,0.0,0.0,100.0,91540,1132,87,527.0,49.7069,3.4954
02560,Nouvion-le-Comte,02,32.0,2024,5,5.0,0.0,0.0,100.0,117680,1623,97,239.0,49.7086,3.459
02561,Nouvion-le-Vineux,02,32.0,2024,1,1.0,0.0,0.0,100.0,105042,1439,73,143.0,49.5108,3.6052
02562,Nouvron-Vingré,02,32.0,2024,2,2.0,0.0,0.0,100.0,85000,1129,77,202.0,49.4349,3.1899
02563,Noyales,02,32.0,2024,4,4.0,0.0,0.0,100.0,95625,1225,78,132.0,49.9056,3.5367
02564,Bernoy-le-Château,02,32.0,2024,12,11.0,1.0,8.0,92.0,148792,1670,89,825.0,49.32,3.3067
02565,Œuilly,02,32.0,2024,4,4.0,0.0,0.0,100.0,85250,1234,72,293.0,49.393,3.6818
02566,Ognes,02,32.0,2024,18,18.0,0.0,0.0,100.0,134122,1523,89,1109.0,49.616,3.1897
02567,Ohis,02,32.0,2024,2,2.0,0.0,0.0,100.0,154625,1275,122,269.0,49.9216,4.0078
02568,Oigny-en-Valois,02,32.0,2024,3,3.0,0.0,0.0,100.0,302983,2444,125,176.0,49.213,3.1287
02569,Oisy,02,32.0,2024,4,4.0,0.0,0.0,100.0,101250,1025,105,438.0,50.0226,3.6502
02570,Ollezy,02,32.0,2024,1,1.0,0.0,0.0,100.0,154000,1556,99,169.0,49.7287,3.1465
02571,Omissy,02,32.0,2024,3,3.0,0.0,0.0,100.0,97600,1392,70,660.0,49.88,3.2969
02572,Orainville,02,32.0,2024,3,3.0,0.0,0.0,100.0,255157,2004,149,490.0,49.376,4.0123
02574,Origny-en-Thiérache,02,32.0,2024,11,11.0,0.0,0.0,100.0,92854,726,133,1354.0,49.8845,4.0133
02575,Origny-Sainte-Benoite,02,32.0,2024,15,15.0,0.0,0.0,100.0,68127,778,87,1587.0,49.827,3.534
02576,Osly-Courtil,02,32.0,2024,2,2.0,0.0,0.0,100.0,207000,1519,150,325.0,49.4,3.2363
02577,Ostel,02,32.0,2024,2,2.0,0.0,0.0,100.0,129312,1076,122,92.0,49.4294,3.5659
02578,Oulches-la-Vallée-Foulon,02,32.0,2024,2,2.0,0.0,0.0,100.0,61875,851,74,80.0,49.4303,3.7406
02580,Oulchy-le-Château,02,32.0,2024,6,6.0,0.0,0.0,100.0,193033,1587,121,785.0,49.2085,3.3828
02581,Paars,02,32.0,2024,3,3.0,0.0,0.0,100.0,117667,1262,94,309.0,49.3321,3.6024
02585,Parcy-et-Tigny,02,32.0,2024,1,1.0,0.0,0.0,100.0,139000,1759,79,245.0,49.2693,3.3291
02586,Parfondeval,02,32.0,2024,1,1.0,0.0,0.0,100.0,43080,431,100,143.0,49.7431,4.1624
02587,Parfondru,02,32.0,2024,3,3.0,0.0,0.0,100.0,173667,1518,142,353.0,49.54,3.7062
02589,Pargny-et-Filain,02,32.0,2024,3,3.0,0.0,0.0,100.0,139667,1679,83,367.0,49.4583,3.5491
02591,Pargny-les-Bois,02,32.0,2024,1,1.0,0.0,0.0,100.0,184100,1089,169,142.0,49.7314,3.6183
02592,Parpeville,02,32.0,2024,4,4.0,0.0,0.0,100.0,78500,796,108,191.0,49.7962,3.5659
02593,Pasly,02,32.0,2024,9,9.0,0.0,0.0,100.0,165344,1602,103,1100.0,49.4017,3.2969
02596,Pavant,02,32.0,2024,11,11.0,0.0,0.0,100.0,148545,1432,102,745.0,48.9552,3.2843
02598,Pernant,02,32.0,2024,10,9.0,1.0,10.0,90.0,127000,1749,96,682.0,49.3745,3.2336
02599,Pierremande,02,32.0,2024,2,2.0,0.0,0.0,100.0,63500,1052,58,250.0,49.5662,3.2535
02600,Pierrepont,02,32.0,2024,3,3.0,0.0,0.0,100.0,65667,973,67,341.0,49.6472,3.7843
02601,Pignicourt,02,32.0,2024,3,3.0,0.0,0.0,100.0,165177,1842,93,173.0,49.4064,4.0233
02602,Pinon,02,32.0,2024,19,19.0,0.0,0.0,100.0,111642,1331,83,1637.0,49.4873,3.4646
02605,Pleine-Selve,02,32.0,2024,2,2.0,0.0,0.0,100.0,51750,503,102,186.0,49.7952,3.5263
02606,Le Plessier-Huleu,02,32.0,2024,1,1.0,0.0,0.0,100.0,231700,1324,175,93.0,49.2391,3.3481
02608,Plomion,02,32.0,2024,7,7.0,0.0,0.0,100.0,73300,796,87,432.0,49.8143,4.0273
02610,Pommiers,02,32.0,2024,5,5.0,0.0,0.0,100.0,192800,1935,104,726.0,49.3936,3.2805
02612,Pont-Arcy,02,32.0,2024,1,1.0,0.0,0.0,100.0,66000,805,82,115.0,49.3918,3.6215
02613,Pontavert,02,32.0,2024,9,9.0,0.0,0.0,100.0,148820,1704,92,605.0,49.4189,3.8271
02614,Pontru,02,32.0,2024,1,1.0,0.0,0.0,100.0,160000,1391,115,290.0,49.9216,3.2007
02615,Pontruet,02,32.0,2024,3,3.0,0.0,0.0,100.0,126900,1085,116,353.0,49.919,3.2326
02617,Pouilly-sur-Serre,02,32.0,2024,2,2.0,0.0,0.0,100.0,89000,871,103,490.0,49.6784,3.585
02618,Prémont,02,32.0,2024,4,4.0,0.0,0.0,100.0,100252,1103,90,683.0,50.0157,3.3928
02619,Prémontré,02,32.0,2024,9,9.0,0.0,0.0,100.0,129944,1290,101,594.0,49.5493,3.4153
02620,Presles-et-Boves,02,32.0,2024,5,5.0,0.0,0.0,100.0,144140,1793,86,320.0,49.3873,3.5379
02621,Presles-et-Thierny,02,32.0,2024,7,6.0,1.0,14.0,86.0,178279,1367,130,401.0,49.513,3.6231
02623,Prisces,02,32.0,2024,1,1.0,0.0,0.0,100.0,26000,500,52,94.0,49.7722,3.8604
02626,Prouvais,02,32.0,2024,4,4.0,0.0,0.0,100.0,215880,2430,89,346.0,49.48,3.97
02629,Puisieux-et-Clanlieu,02,32.0,2024,2,2.0,0.0,0.0,100.0,98900,932,92,331.0,49.8485,3.6579
02631,Quierzy,02,32.0,2024,10,10.0,0.0,0.0,100.0,107822,1348,87,428.0,49.5638,3.1466
02636,Regny,02,32.0,2024,1,1.0,0.0,0.0,100.0,196650,1206,163,187.0,49.8336,3.4202
02637,Remaucourt,02,32.0,2024,5,5.0,0.0,0.0,100.0,125090,1077,115,265.0,49.8979,3.3528
02638,Remies,02,32.0,2024,6,6.0,0.0,0.0,100.0,119667,1273,97,241.0,49.6799,3.5242
02639,Remigny,02,32.0,2024,2,2.0,0.0,0.0,100.0,201500,1352,149,339.0,49.7122,3.2925
02640,Renansart,02,32.0,2024,2,2.0,0.0,0.0,100.0,59000,754,76,144.0,49.7335,3.4587
02642,Résigny,02,32.0,2024,4,4.0,0.0,0.0,100.0,133750,1131,106,157.0,49.7411,4.2097
02643,Ressons-le-Long,02,32.0,2024,6,6.0,0.0,0.0,100.0,149605,1547,104,790.0,49.3829,3.1518
02644,Retheuil,02,32.0,2024,4,4.0,0.0,0.0,100.0,205500,1531,140,360.0,49.3186,3.001
02648,Ribemont,02,32.0,2024,26,26.0,0.0,0.0,100.0,98668,1075,94,1931.0,49.7853,3.4707
02649,Rocourt-Saint-Martin,02,32.0,2024,1,1.0,0.0,0.0,100.0,187000,1100,170,299.0,49.1427,3.3915
02650,Rocquigny,02,32.0,2024,4,4.0,0.0,0.0,100.0,109750,1242,92,359.0,50.0168,3.9724
02651,Rogécourt,02,32.0,2024,1,1.0,0.0,0.0,100.0,80000,1026,78,88.0,49.6493,3.4141
02653,Romeny-sur-Marne,02,32.0,2024,4,4.0,0.0,0.0,100.0,192750,1950,99,450.0,48.9849,3.3343
02656,Roucy,02,32.0,2024,5,5.0,0.0,0.0,100.0,183720,1679,115,365.0,49.3787,3.8162
02657,Rougeries,02,32.0,2024,2,2.0,0.0,0.0,100.0,128050,1178,110,200.0,49.806,3.7896
02658,Roupy,02,32.0,2024,4,4.0,0.0,0.0,100.0,66500,828,83,237.0,49.8121,3.1823
02659,Rouvroy,02,32.0,2024,6,6.0,0.0,0.0,100.0,122325,1280,87,506.0,49.8583,3.3315
02661,Royaucourt-et-Chailvet,02,32.0,2024,2,2.0,0.0,0.0,100.0,168500,1164,136,226.0,49.5122,3.539
02662,Rozet-Saint-Albin,02,32.0,2024,7,6.0,1.0,14.0,86.0,127714,1503,90,335.0,49.1979,3.2944
02663,Rozières-sur-Crise,02,32.0,2024,1,1.0,0.0,0.0,100.0,241750,1691,143,239.0,49.3228,3.3644
02665,Grand-Rozoy,02,32.0,2024,4,4.0,0.0,0.0,100.0,107700,1282,83,299.0,49.2415,3.3813
02666,Rozoy-sur-Serre,02,32.0,2024,12,12.0,0.0,0.0,100.0,60938,655,88,917.0,49.7036,4.1348
02667,Saconin-et-Breuil,02,32.0,2024,1,1.0,0.0,0.0,100.0,225306,2048,110,202.0,49.3509,3.2459
02668,Sains-Richaumont,02,32.0,2024,15,14.0,1.0,7.0,93.0,84209,865,102,923.0,49.8304,3.7018
02670,Saint-Algis,02,32.0,2024,2,2.0,0.0,0.0,100.0,60000,912,66,148.0,49.8946,3.8257
02671,Saint-Aubin,02,32.0,2024,2,2.0,0.0,0.0,100.0,116500,1456,80,276.0,49.5085,3.1891
02672,Saint-Bandry,02,32.0,2024,2,2.0,0.0,0.0,100.0,173500,1264,138,234.0,49.3643,3.1471
02673,Saint-Christophe-à-Berry,02,32.0,2024,3,3.0,0.0,0.0,100.0,115333,1613,75,441.0,49.4296,3.1302
02674,Saint-Clément,02,32.0,2024,1,1.0,0.0,0.0,100.0,30000,536,56,44.0,49.7741,4.0702
02675,Sainte-Croix,02,32.0,2024,1,1.0,0.0,0.0,100.0,140000,1591,88,127.0,49.4798,3.7815
02676,Saint-Erme-Outre-et-Ramecourt,02,32.0,2024,13,12.0,1.0,8.0,92.0,143504,1099,141,1697.0,49.5219,3.8564
02677,Saint-Eugène,02,32.0,2024,3,3.0,0.0,0.0,100.0,84333,1302,68,232.0,49.0155,3.5173
02678,Sainte-Geneviève,02,32.0,2024,1,1.0,0.0,0.0,100.0,112000,875,128,73.0,49.7248,4.0744
02679,Saint-Gengoulph,02,32.0,2024,1,1.0,0.0,0.0,100.0,258000,1402,184,152.0,49.1154,3.2129
02680,Saint-Gobain,02,32.0,2024,21,21.0,0.0,0.0,100.0,88162,1034,86,2288.0,49.5966,3.394
02682,Saint-Mard,02,32.0,2024,1,1.0,0.0,0.0,100.0,80000,889,90,116.0,49.3832,3.5894
02684,Saint-Michel,02,32.0,2024,35,34.0,1.0,3.0,97.0,93265,874,109,3199.0,49.931,4.15
02685,Saint-Nicolas-aux-Bois,02,32.0,2024,1,1.0,0.0,0.0,100.0,170000,1126,151,110.0,49.6005,3.4391
02686,Saint-Paul-aux-Bois,02,32.0,2024,3,3.0,0.0,0.0,100.0,79333,966,88,370.0,49.5463,3.2004
02687,Saint-Pierre-Aigle,02,32.0,2024,4,4.0,0.0,0.0,100.0,250350,2385,111,328.0,49.3137,3.1992
02690,Sainte-Preuve,02,32.0,2024,1,1.0,0.0,0.0,100.0,50000,385,130,67.0,49.619,3.9113
02691,Saint-Quentin,02,32.0,2024,582,451.0,131.0,23.0,77.0,107095,1220,87,52813.0,49.8475,3.279
02693,Saint-Rémy-Blanzy,02,32.0,2024,1,1.0,0.0,0.0,100.0,71500,627,114,226.0,49.2472,3.3034
02694,Saint-Simon,02,32.0,2024,9,9.0,0.0,0.0,100.0,90378,1137,84,593.0,49.7457,3.1818
02697,Samoussy,02,32.0,2024,4,4.0,0.0,0.0,100.0,163325,1504,109,384.0,49.5906,3.7432
02698,Sancy-les-Cheminots,02,32.0,2024,1,1.0,0.0,0.0,100.0,72000,1263,57,101.0,49.4386,3.4768
02701,Saulchery,02,32.0,2024,9,9.0,0.0,0.0,100.0,144944,1358,112,687.0,48.9819,3.3116
02702,Savy,02,32.0,2024,3,3.0,0.0,0.0,100.0,122633,1168,97,618.0,49.8336,3.1977
02703,Seboncourt,02,32.0,2024,10,10.0,0.0,0.0,100.0,82540,1119,73,1087.0,49.9635,3.4949
02704,Selens,02,32.0,2024,3,3.0,0.0,0.0,100.0,109300,1331,89,202.0,49.4975,3.2018
02705,La Selve,02,32.0,2024,4,4.0,0.0,0.0,100.0,120325,1167,110,201.0,49.5706,3.9946
02706,Septmonts,02,32.0,2024,8,8.0,0.0,0.0,100.0,161006,1695,96,576.0,49.3375,3.3641
02707,Septvaux,02,32.0,2024,1,1.0,0.0,0.0,100.0,92000,920,100,179.0,49.5704,3.3856
02708,Sequehart,02,32.0,2024,2,2.0,0.0,0.0,100.0,251525,1494,164,219.0,49.9301,3.3419
02709,Serain,02,32.0,2024,4,4.0,0.0,0.0,100.0,82100,854,92,380.0,50.0239,3.3649
02710,Seraucourt-le-Grand,02,32.0,2024,4,4.0,0.0,0.0,100.0,91100,1070,85,706.0,49.7823,3.216
02711,Serches,02,32.0,2024,4,4.0,0.0,0.0,100.0,179000,1092,174,273.0,49.3322,3.4492
02713,Seringes-et-Nesles,02,32.0,2024,2,2.0,0.0,0.0,100.0,157000,2018,83,273.0,49.2115,3.5606
02714,Sermoise,02,32.0,2024,3,3.0,0.0,0.0,100.0,145000,1754,81,340.0,49.3717,3.4463
02715,Serval,02,32.0,2024,2,2.0,0.0,0.0,100.0,61188,520,114,42.0,49.3525,3.6817
02716,Servais,02,32.0,2024,4,4.0,0.0,0.0,100.0,176750,1681,108,287.0,49.6194,3.3422
02717,Séry-lès-Mézières,02,32.0,2024,6,6.0,0.0,0.0,100.0,131717,1177,113,601.0,49.7657,3.4242
02719,Sinceny,02,32.0,2024,32,32.0,0.0,0.0,100.0,100827,1179,86,2005.0,49.5931,3.2668
02720,Sissonne,02,32.0,2024,18,18.0,0.0,0.0,100.0,100671,897,114,2065.0,49.5685,3.9298
02721,Sissy,02,32.0,2024,7,7.0,0.0,0.0,100.0,157351,1247,131,505.0,49.8089,3.4206
02722,Soissons,02,32.0,2024,275,131.0,144.0,52.0,48.0,145339,1832,81,28046.0,49.3766,3.3235
02723,Soize,02,32.0,2024,1,1.0,0.0,0.0,100.0,100000,775,129,95.0,49.6973,4.0826
02724,Sommelans,02,32.0,2024,1,1.0,0.0,0.0,100.0,155000,1535,101,56.0,49.1355,3.2903
02725,Sommeron,02,32.0,2024,1,1.0,0.0,0.0,100.0,49000,343,143,134.0,49.9574,3.9432
02726,Sommette-Eaucourt,02,32.0,2024,2,2.0,0.0,0.0,100.0,127500,1687,83,178.0,49.7268,3.1178
02727,Sons-et-Ronchères,02,32.0,2024,3,3.0,0.0,0.0,100.0,99000,707,158,205.0,49.7669,3.6682
02728,Sorbais,02,32.0,2024,2,2.0,0.0,0.0,100.0,200200,1369,149,266.0,49.9104,3.8808
02730,Soupir,02,32.0,2024,2,2.0,0.0,0.0,100.0,71500,1222,56,272.0,49.4107,3.599
02736,Tartiers,02,32.0,2024,1,1.0,0.0,0.0,100.0,137000,958,143,162.0,49.4368,3.2332
02737,Tavaux-et-Pontséricourt,02,32.0,2024,5,5.0,0.0,0.0,100.0,124800,1395,99,543.0,49.7287,3.924
02738,Tergnier,02,32.0,2024,127,124.0,3.0,2.0,98.0,96408,1152,86,13045.0,49.6562,3.2949
02739,Terny-Sorny,02,32.0,2024,3,3.0,0.0,0.0,100.0,141333,1306,120,317.0,49.4495,3.3678
02740,Thenailles,02,32.0,2024,2,2.0,0.0,0.0,100.0,63066,992,61,220.0,49.812,3.9474
02741,Thenelles,02,32.0,2024,6,6.0,0.0,0.0,100.0,60433,830,74,541.0,49.8329,3.4593
02743,Le Thuel,02,32.0,2024,1,1.0,0.0,0.0,100.0,102000,1229,83,158.0,49.643,4.0834
02746,Travecy,02,32.0,2024,5,5.0,0.0,0.0,100.0,111000,1150,92,685.0,49.685,3.3454
02747,Trefcon,02,32.0,2024,2,2.0,0.0,0.0,100.0,147000,1263,116,80.0,49.8622,3.0888
02748,Trélou-sur-Marne,02,32.0,2024,11,11.0,0.0,0.0,100.0,132836,1589,94,952.0,49.0903,3.6055
02749,Troësnes,02,32.0,2024,1,1.0,0.0,0.0,100.0,111000,2135,52,207.0,49.1984,3.1773
02750,Trosly-Loire,02,32.0,2024,4,4.0,0.0,0.0,100.0,61000,1264,49,541.0,49.5167,3.2298
02752,Tugny-et-Pont,02,32.0,2024,8,8.0,0.0,0.0,100.0,94312,891,109,282.0,49.7676,3.1642
02753,Tupigny,02,32.0,2024,4,4.0,0.0,0.0,100.0,112125,1033,105,341.0,49.9775,3.5983
02754,Ugny-le-Gay,02,32.0,2024,1,1.0,0.0,0.0,100.0,112500,1324,85,187.0,49.6623,3.1569
02755,Urcel,02,32.0,2024,2,2.0,0.0,0.0,100.0,100610,988,98,534.0,49.4936,3.5575
02756,Urvillers,02,32.0,2024,3,3.0,0.0,0.0,100.0,156133,1024,145,687.0,49.7895,3.3203
02757,Vadencourt,02,32.0,2024,6,6.0,0.0,0.0,100.0,67167,694,101,505.0,49.9248,3.5774
02758,Vailly-sur-Aisne,02,32.0,2024,24,22.0,2.0,8.0,92.0,139858,1435,101,2050.0,49.4124,3.5174
02759,La Vallée-au-Blé,02,32.0,2024,2,2.0,0.0,0.0,100.0,115000,996,112,355.0,49.8572,3.794
02760,La Vallée-Mulâtre,02,32.0,2024,2,2.0,0.0,0.0,100.0,75250,758,99,152.0,50.0259,3.561
02761,Variscourt,02,32.0,2024,2,2.0,0.0,0.0,100.0,210875,1864,113,217.0,49.4152,3.9828
02763,Vasseny,02,32.0,2024,4,4.0,0.0,0.0,100.0,125083,982,124,197.0,49.3574,3.4909
02764,Vassogne,02,32.0,2024,1,1.0,0.0,0.0,100.0,187000,1870,100,92.0,49.4203,3.729
02765,Vaucelles-et-Beffecourt,02,32.0,2024,2,2.0,0.0,0.0,100.0,143500,1438,100,230.0,49.5215,3.5584
02766,Vaudesson,02,32.0,2024,3,3.0,0.0,0.0,100.0,131667,1104,119,237.0,49.4775,3.4872
02767,Vauxrezis,02,32.0,2024,3,3.0,0.0,0.0,100.0,185833,1706,122,323.0,49.4213,3.2747
02768,Vauxaillon,02,32.0,2024,7,7.0,0.0,0.0,100.0,132543,1371,101,498.0,49.4767,3.4084
02769,Vaux-Andigny,02,32.0,2024,10,10.0,0.0,0.0,100.0,102335,883,113,924.0,50.009,3.5248
02770,Vauxbuin,02,32.0,2024,2,2.0,0.0,0.0,100.0,402425,2702,153,763.0,49.3577,3.2957
02772,Vaux-en-Vermandois,02,32.0,2024,1,1.0,0.0,0.0,100.0,176000,1725,102,142.0,49.8259,3.138
02774,Vendelles,02,32.0,2024,1,1.0,0.0,0.0,100.0,95000,880,108,123.0,49.9077,3.139
02775,Vendeuil,02,32.0,2024,11,11.0,0.0,0.0,100.0,113973,1287,90,923.0,49.7236,3.3478
02776,Vendhuile,02,32.0,2024,4,4.0,0.0,0.0,100.0,110450,1338,76,585.0,50.0124,3.2076
02779,Vénérolles,02,32.0,2024,1,1.0,0.0,0.0,100.0,68000,764,89,229.0,49.9898,3.6287
02780,Venizel,02,32.0,2024,12,12.0,0.0,0.0,100.0,194114,1788,108,1324.0,49.369,3.395
02781,Verdilly,02,32.0,2024,4,4.0,0.0,0.0,100.0,205700,2030,101,443.0,49.0746,3.4231
02782,Le Verguier,02,32.0,2024,1,1.0,0.0,0.0,100.0,45000,395,114,212.0,49.9257,3.1726
02783,Grand-Verly,02,32.0,2024,2,2.0,0.0,0.0,100.0,144000,1218,124,124.0,49.9446,3.5814
02785,Vermand,02,32.0,2024,12,12.0,0.0,0.0,100.0,101854,1190,90,1104.0,49.884,3.1555
02786,Verneuil-sous-Coucy,02,32.0,2024,1,1.0,0.0,0.0,100.0,355000,3859,92,139.0,49.5446,3.3188
02787,Verneuil-sur-Serre,02,32.0,2024,5,5.0,0.0,0.0,100.0,127300,1380,96,249.0,49.6452,3.6806
02788,Versigny,02,32.0,2024,5,5.0,0.0,0.0,100.0,110700,1179,95,470.0,49.6571,3.4435
02789,Vervins,02,32.0,2024,13,13.0,0.0,0.0,100.0,91444,985,92,2549.0,49.8371,3.9226
02790,Vesles-et-Caumont,02,32.0,2024,1,1.0,0.0,0.0,100.0,126200,1328,95,235.0,49.6767,3.7921
02791,Veslud,02,32.0,2024,4,4.0,0.0,0.0,100.0,66512,1323,47,270.0,49.5402,3.7301
02792,Veuilly-la-Poterie,02,32.0,2024,2,2.0,0.0,0.0,100.0,245000,1420,176,155.0,49.0814,3.2185
02793,Vézaponin,02,32.0,2024,1,1.0,0.0,0.0,100.0,105000,1750,60,113.0,49.4666,3.2235
02794,Vézilly,02,32.0,2024,2,2.0,0.0,0.0,100.0,141750,2459,73,181.0,49.1877,3.6817
02795,Vic-sur-Aisne,02,32.0,2024,15,10.0,5.0,33.0,67.0,112117,1686,72,1608.0,49.4125,3.1108
02796,Vichel-Nanteuil,02,32.0,2024,1,1.0,0.0,0.0,100.0,63000,594,106,93.0,49.1821,3.2965
02797,Viel-Arcy,02,32.0,2024,2,2.0,0.0,0.0,100.0,127500,1342,98,166.0,49.3794,3.6243
02798,Viels-Maisons,02,32.0,2024,9,7.0,2.0,22.0,78.0,154422,1577,107,1192.0,48.9035,3.397
02799,Vierzy,02,32.0,2024,4,4.0,0.0,0.0,100.0,165162,1262,142,384.0,49.2873,3.2762
02800,Viffort,02,32.0,2024,4,4.0,0.0,0.0,100.0,511473,3412,144,310.0,48.9555,3.4663
02801,Vigneux-Hocquet,02,32.0,2024,4,4.0,0.0,0.0,100.0,110938,878,141,262.0,49.7424,3.9931
02802,La Ville-aux-Bois-lès-Dizy,02,32.0,2024,1,1.0,0.0,0.0,100.0,75000,514,146,204.0,49.6629,3.9882
02803,La Ville-aux-Bois-lès-Pontavert,02,32.0,2024,3,3.0,0.0,0.0,100.0,143633,1781,79,150.0,49.4278,3.8536
02804,Villemontoire,02,32.0,2024,4,4.0,0.0,0.0,100.0,163750,1701,92,219.0,49.3004,3.3204
02805,Villeneuve-Saint-Germain,02,32.0,2024,25,21.0,4.0,16.0,84.0,131288,1496,88,2616.0,49.3809,3.3595
02806,Villeneuve-sur-Fère,02,32.0,2024,4,4.0,0.0,0.0,100.0,99000,1133,89,277.0,49.171,3.4775
02807,Villequier-Aumont,02,32.0,2024,8,8.0,0.0,0.0,100.0,148125,1490,96,684.0,49.66,3.1991
02808,Villeret,02,32.0,2024,1,1.0,0.0,0.0,100.0,42000,894,47,263.0,49.9501,3.186
02809,Villers-Agron-Aiguizy,02,32.0,2024,1,1.0,0.0,0.0,100.0,143000,1490,96,75.0,49.1609,3.7143
02810,Villers-Cotterêts,02,32.0,2024,92,61.0,31.0,34.0,66.0,169757,2021,86,10489.0,49.2197,3.1025
02812,Villers-Hélon,02,32.0,2024,1,1.0,0.0,0.0,100.0,184400,1537,120,193.0,49.2649,3.2681
02813,Villers-le-Sec,02,32.0,2024,2,2.0,0.0,0.0,100.0,102460,1486,65,262.0,49.7701,3.505
02814,Villers-lès-Guise,02,32.0,2024,2,2.0,0.0,0.0,100.0,97000,1651,68,166.0,49.9251,3.6827
02815,Villers-Saint-Christophe,02,32.0,2024,6,6.0,0.0,0.0,100.0,161025,1238,120,418.0,49.7799,3.092
02816,Villers-sur-Fère,02,32.0,2024,9,8.0,1.0,11.0,89.0,121478,1451,88,508.0,49.1679,3.5302
02817,Ville-Savoye,02,32.0,2024,1,1.0,0.0,0.0,100.0,110000,957,115,84.0,49.2942,3.6403
02818,Villiers-Saint-Denis,02,32.0,2024,6,6.0,0.0,0.0,100.0,177833,2099,88,997.0,48.9978,3.2621
02819,Vincy-Reuil-et-Magny,02,32.0,2024,1,1.0,0.0,0.0,100.0,25000,347,72,101.0,49.7153,4.0467
02820,Viry-Noureuil,02,32.0,2024,15,15.0,0.0,0.0,100.0,107527,1151,101,1651.0,49.6355,3.2483
02821,Vivaise,02,32.0,2024,5,5.0,0.0,0.0,100.0,107990,1235,88,654.0,49.6238,3.5634
02822,Vivières,02,32.0,2024,2,2.0,0.0,0.0,100.0,240000,3270,73,403.0,49.3093,3.0877
02823,Voharies,02,32.0,2024,2,2.0,0.0,0.0,100.0,58000,910,67,70.0,49.7879,3.7915
02824,Vorges,02,32.0,2024,4,4.0,0.0,0.0,100.0,189112,1767,118,383.0,49.5182,3.6527
02826,Voulpaix,02,32.0,2024,1,1.0,0.0,0.0,100.0,115000,1045,110,348.0,49.8408,3.8332
02827,Voyenne,02,32.0,2024,7,7.0,0.0,0.0,100.0,95864,960,93,312.0,49.7129,3.7408
02828,Vregny,02,32.0,2024,1,1.0,0.0,0.0,100.0,116000,1634,71,89.0,49.4142,3.4189
02830,Wassigny,02,32.0,2024,12,12.0,0.0,0.0,100.0,71242,716,104,927.0,50.0177,3.6018
02831,Watigny,02,32.0,2024,3,3.0,0.0,0.0,100.0,102333,1127,90,350.0,49.9193,4.199
02832,Wiège-Faty,02,32.0,2024,4,4.0,0.0,0.0,100.0,129750,1117,116,179.0,49.8852,3.7192
02833,Wimy,02,32.0,2024,3,3.0,0.0,0.0,100.0,125000,1285,97,460.0,49.9485,3.9972
03001,Abrest,03,84.0,2024,35,33.0,2.0,6.0,94.0,150207,1644,89,2915.0,46.0962,3.4514
03002,Agonges,03,84.0,2024,2,2.0,0.0,0.0,100.0,115000,1414,113,300.0,46.6238,3.149
03003,Ainay-le-Château,03,84.0,2024,14,14.0,0.0,0.0,100.0,101161,879,124,989.0,46.7182,2.7157
03004,Andelaroche,03,84.0,2024,2,2.0,0.0,0.0,100.0,73715,934,70,214.0,46.248,3.74
03005,Archignat,03,84.0,2024,6,6.0,0.0,0.0,100.0,50283,908,58,321.0,46.3634,2.4102
03006,Arfeuilles,03,84.0,2024,10,9.0,1.0,10.0,90.0,112017,1414,83,594.0,46.1468,3.7388
03007,Arpheuilles-Saint-Priest,03,84.0,2024,6,6.0,0.0,0.0,100.0,91570,756,105,383.0,46.2273,2.6699
03008,Arronnes,03,84.0,2024,6,6.0,0.0,0.0,100.0,102732,1290,75,378.0,46.0513,3.5714
03010,Audes,03,84.0,2024,4,4.0,0.0,0.0,100.0,130745,1401,93,402.0,46.461,2.5578
03011,Aurouër,03,84.0,2024,4,4.0,0.0,0.0,100.0,131585,1328,102,400.0,46.6873,3.3123
03012,Autry-Issards,03,84.0,2024,3,3.0,0.0,0.0,100.0,155667,1429,111,313.0,46.5444,3.1202
03013,Avermes,03,84.0,2024,25,25.0,0.0,0.0,100.0,181256,1763,103,4074.0,46.5961,3.3164
03014,Avrilly,03,84.0,2024,2,2.0,0.0,0.0,100.0,219850,2117,87,144.0,46.3284,3.971
03015,Bagneux,03,84.0,2024,2,2.0,0.0,0.0,100.0,100475,1988,49,329.0,46.6477,3.2071
03016,Barberier,03,84.0,2024,1,1.0,0.0,0.0,100.0,25000,625,40,150.0,46.2224,3.2475
03017,Barrais-Bussolles,03,84.0,2024,2,2.0,0.0,0.0,100.0,84530,1100,88,185.0,46.2809,3.6954
03018,Bayet,03,84.0,2024,5,5.0,0.0,0.0,100.0,98220,1263,79,672.0,46.2585,3.2755
03019,Beaulon,03,84.0,2024,18,18.0,0.0,0.0,100.0,126598,1216,100,1649.0,46.5868,3.6733
03020,Beaune-d'Allier,03,84.0,2024,4,4.0,0.0,0.0,100.0,80122,874,98,296.0,46.2782,2.8889
03021,Bègues,03,84.0,2024,3,3.0,0.0,0.0,100.0,76000,774,94,232.0,46.1232,3.1391
03022,Bellenaves,03,84.0,2024,17,17.0,0.0,0.0,100.0,99075,1205,83,983.0,46.2093,3.0693
03023,Bellerive-sur-Allier,03,84.0,2024,119,97.0,22.0,18.0,82.0,191878,1991,98,8943.0,46.1202,3.4025
03024,Bert,03,84.0,2024,3,3.0,0.0,0.0,100.0,150333,1526,122,274.0,46.3276,3.7043
03025,Bessay-sur-Allier,03,84.0,2024,16,16.0,0.0,0.0,100.0,113664,1160,107,1382.0,46.4507,3.371
03026,Besson,03,84.0,2024,9,9.0,0.0,0.0,100.0,172656,1803,107,728.0,46.4817,3.2523
03027,Bézenet,03,84.0,2024,14,14.0,0.0,0.0,100.0,86854,965,100,910.0,46.3332,2.846
03028,Billezois,03,84.0,2024,8,8.0,0.0,0.0,100.0,108334,1112,95,363.0,46.208,3.5758
03029,Billy,03,84.0,2024,11,11.0,0.0,0.0,100.0,108071,1298,81,817.0,46.2316,3.4414
03030,Biozat,03,84.0,2024,10,10.0,0.0,0.0,100.0,120182,1421,88,933.0,46.0811,3.2927
03031,Bizeneuille,03,84.0,2024,1,1.0,0.0,0.0,100.0,60000,476,126,296.0,46.4022,2.7351
03032,Blomard,03,84.0,2024,1,1.0,0.0,0.0,100.0,78600,1123,70,222.0,46.2908,2.9644
03034,Boucé,03,84.0,2024,8,8.0,0.0,0.0,100.0,185119,1967,86,507.0,46.3178,3.4958
03035,Le Bouchaud,03,84.0,2024,1,1.0,0.0,0.0,100.0,201000,2072,97,192.0,46.305,3.9069
03036,Bourbon-l'Archambault,03,84.0,2024,27,26.0,1.0,4.0,96.0,111104,1230,85,2494.0,46.5829,3.0448
03037,Braize,03,84.0,2024,7,7.0,0.0,0.0,100.0,86022,1067,67,259.0,46.6619,2.6646
03038,Bransat,03,84.0,2024,9,9.0,0.0,0.0,100.0,107333,981,106,530.0,46.3328,3.2168
03039,Bresnay,03,84.0,2024,2,2.0,0.0,0.0,100.0,106000,1166,92,386.0,46.4335,3.2558
03040,Bressolles,03,84.0,2024,7,7.0,0.0,0.0,100.0,158286,1777,91,1143.0,46.5296,3.2879
03041,Le Brethon,03,84.0,2024,2,2.0,0.0,0.0,100.0,226036,1498,150,324.0,46.5893,2.7136
03042,Le Breuil,03,84.0,2024,5,5.0,0.0,0.0,100.0,71380,1214,66,524.0,46.1753,3.6664
03043,Broût-Vernet,03,84.0,2024,14,14.0,0.0,0.0,100.0,151891,1402,107,1217.0,46.1995,3.2932
03044,Brugheas,03,84.0,2024,20,20.0,0.0,0.0,100.0,174043,1621,106,1564.0,46.073,3.3634
03045,Busset,03,84.0,2024,11,11.0,0.0,0.0,100.0,99265,1371,83,850.0,46.058,3.5139
03046,Buxières-les-Mines,03,84.0,2024,19,18.0,1.0,5.0,95.0,64705,871,77,994.0,46.4715,2.945
03047,La Celle,03,84.0,2024,6,6.0,0.0,0.0,100.0,80688,1181,67,398.0,46.227,2.7742
03048,Cérilly,03,84.0,2024,20,20.0,0.0,0.0,100.0,81053,969,86,1316.0,46.6263,2.8085
03049,Cesset,03,84.0,2024,7,7.0,0.0,0.0,100.0,73429,867,89,430.0,46.2987,3.1988
03050,La Chabanne,03,84.0,2024,6,6.0,0.0,0.0,100.0,137171,1583,89,169.0,46.0268,3.7526
03051,Chambérat,03,84.0,2024,4,4.0,0.0,0.0,100.0,32500,606,54,277.0,46.4145,2.4227
03052,Chamblet,03,84.0,2024,11,11.0,0.0,0.0,100.0,131927,1134,117,1074.0,46.3264,2.7098
03053,Chantelle,03,84.0,2024,14,14.0,0.0,0.0,100.0,95818,1186,86,1131.0,46.2398,3.1547
03054,Chapeau,03,84.0,2024,6,6.0,0.0,0.0,100.0,140680,1415,101,231.0,46.4928,3.5127
03055,La Chapelaude,03,84.0,2024,8,8.0,0.0,0.0,100.0,109499,1112,90,938.0,46.428,2.5114
03056,La Chapelle,03,84.0,2024,10,10.0,0.0,0.0,100.0,112544,1589,80,399.0,46.0876,3.5903
03057,La Chapelle-aux-Chasses,03,84.0,2024,1,1.0,0.0,0.0,100.0,64000,1123,57,197.0,46.6619,3.5294
03058,Chappes,03,84.0,2024,3,3.0,0.0,0.0,100.0,54500,889,57,220.0,46.3831,2.9426
03059,Chareil-Cintrat,03,84.0,2024,4,4.0,0.0,0.0,100.0,296750,1540,198,388.0,46.2657,3.2328
03060,Charmeil,03,84.0,2024,11,11.0,0.0,0.0,100.0,170673,1566,113,947.0,46.158,3.3935
03061,Charmes,03,84.0,2024,5,5.0,0.0,0.0,100.0,144780,1624,84,369.0,46.0828,3.2464
03062,Charroux,03,84.0,2024,7,7.0,0.0,0.0,100.0,104160,1658,61,335.0,46.1817,3.1625
03063,Chassenard,03,84.0,2024,12,12.0,0.0,0.0,100.0,112561,1055,101,1023.0,46.4385,3.9722
03064,Château-sur-Allier,03,84.0,2024,1,1.0,0.0,0.0,100.0,127000,3256,39,160.0,46.7812,2.9841
03065,Châtel-de-Neuvre,03,84.0,2024,3,3.0,0.0,0.0,100.0,134833,931,142,563.0,46.4197,3.2961
03066,Châtel-Montagne,03,84.0,2024,7,7.0,0.0,0.0,100.0,74930,1076,76,326.0,46.1021,3.7183
03067,Châtelperron,03,84.0,2024,1,1.0,0.0,0.0,100.0,171500,1072,160,130.0,46.3996,3.6326
03068,Châtelus,03,84.0,2024,1,1.0,0.0,0.0,100.0,295000,1612,183,119.0,46.2022,3.7225
03069,Châtillon,03,84.0,2024,3,3.0,0.0,0.0,100.0,75667,725,110,317.0,46.4643,3.1228
03070,Chavenon,03,84.0,2024,1,1.0,0.0,0.0,100.0,205000,1708,120,140.0,46.4218,2.9539
03071,Chavroches,03,84.0,2024,2,2.0,0.0,0.0,100.0,197500,1484,120,268.0,46.354,3.5984
03072,Chazemais,03,84.0,2024,1,1.0,0.0,0.0,100.0,45000,511,88,504.0,46.4841,2.5147
03073,Chemilly,03,84.0,2024,3,3.0,0.0,0.0,100.0,153303,1433,97,580.0,46.4765,3.3088
03074,Chevagnes,03,84.0,2024,11,11.0,0.0,0.0,100.0,180727,1586,94,630.0,46.6099,3.5636
03075,Chezelle,03,84.0,2024,4,4.0,0.0,0.0,100.0,117000,1043,115,158.0,46.2136,3.1097
03076,Chézy,03,84.0,2024,1,1.0,0.0,0.0,100.0,179210,1572,114,212.0,46.6158,3.4514
03077,Chirat-l'Église,03,84.0,2024,2,2.0,0.0,0.0,100.0,206750,1596,113,129.0,46.2499,3.0339
03078,Chouvigny,03,84.0,2024,11,11.0,0.0,0.0,100.0,103170,1066,99,232.0,46.1246,3.0018
03079,Cindré,03,84.0,2024,6,6.0,0.0,0.0,100.0,247055,2333,104,276.0,46.3215,3.5469
03080,Cognat-Lyonne,03,84.0,2024,7,7.0,0.0,0.0,100.0,220933,1918,113,706.0,46.11,3.3002
03081,Colombier,03,84.0,2024,3,3.0,0.0,0.0,100.0,122017,1146,108,327.0,46.2675,2.7937
03082,Commentry,03,84.0,2024,69,59.0,10.0,14.0,86.0,76876,962,82,6017.0,46.2734,2.7509
03083,Contigny,03,84.0,2024,5,5.0,0.0,0.0,100.0,95940,914,102,573.0,46.3461,3.3145
03084,Cosne-d'Allier,03,84.0,2024,37,37.0,0.0,0.0,100.0,94184,1034,92,2006.0,46.4876,2.8317
03085,Coulandon,03,84.0,2024,4,4.0,0.0,0.0,100.0,151425,1401,97,645.0,46.5559,3.2412
03086,Coulanges,03,84.0,2024,4,4.0,0.0,0.0,100.0,124738,1508,82,285.0,46.4789,3.8669
03087,Couleuvre,03,84.0,2024,7,7.0,0.0,0.0,100.0,87286,1027,74,580.0,46.6747,2.9041
03088,Courçais,03,84.0,2024,1,1.0,0.0,0.0,100.0,150000,1087,138,314.0,46.4657,2.4489
03089,Coutansouze,03,84.0,2024,5,5.0,0.0,0.0,100.0,66168,831,81,154.0,46.2071,3.0041
03090,Couzon,03,84.0,2024,4,4.0,0.0,0.0,100.0,81678,740,125,328.0,46.6427,3.1192
03091,Créchy,03,84.0,2024,3,3.0,0.0,0.0,100.0,134223,1407,114,428.0,46.2692,3.4228
03092,Cressanges,03,84.0,2024,6,6.0,0.0,0.0,100.0,126367,1240,107,644.0,46.4493,3.1666
03093,Creuzier-le-Neuf,03,84.0,2024,11,11.0,0.0,0.0,100.0,177772,1882,100,1225.0,46.1785,3.4635
03094,Creuzier-le-Vieux,03,84.0,2024,21,17.0,4.0,19.0,81.0,186581,1970,94,3205.0,46.1632,3.4387
03095,Cusset,03,84.0,2024,180,102.0,78.0,43.0,57.0,126181,1510,80,13316.0,46.1342,3.4774
03096,Deneuille-lès-Chantelle,03,84.0,2024,2,2.0,0.0,0.0,100.0,128000,833,130,94.0,46.2517,3.1475
03097,Deneuille-les-Mines,03,84.0,2024,4,4.0,0.0,0.0,100.0,133655,1407,91,347.0,46.3799,2.7692
03098,Désertines,03,84.0,2024,59,52.0,7.0,12.0,88.0,99051,1122,85,4259.0,46.3571,2.6253
